     3.04           OBSERVATION DATA    M: Mixed            RINEX VERSION / TYPE
RTKCONV-EX 2.5.0                        20251105 182753 UTC PGM / RUN BY / DATE 
format: u-blox UBX                                          COMMENT             
log: C:\Users\A\Downloads\navi\GPS1.ubx                     COMMENT             
                                                            MARKER NAME         
                                                            MARKER NUMBER       
                                                            MARKER TYPE         
                                                            OBSERVER / AGENCY   
                                                            REC # / TYPE / VERS 
                                                            ANT # / TYPE        
 -2418229.6772  5385791.8285  2405773.4489                  APPROX POSITION XYZ 
        0.0000        0.0000        0.0000                  ANTENNA: DELTA H/E/N
G    8 C1C L1C D1C S1C C2X L2X D2X S2X                      SYS / # / OBS TYPES 
R    8 C1C L1C D1C S1C C2C L2C D2C S2C                      SYS / # / OBS TYPES 
E    8 C1X L1X D1X S1X C7X L7X D7X S7X                      SYS / # / OBS TYPES 
J    8 C1C L1C D1C S1C C2X L2X D2X S2X                      SYS / # / OBS TYPES 
S    4 C1C L1C D1C S1C                                      SYS / # / OBS TYPES 
C    8 C2I L2I D2I S2I C7I L7I D7I S7I                      SYS / # / OBS TYPES 
  2025    10    27    01    31   38.0030000     GPS         TIME OF FIRST OBS   
  2025    10    27    01    39   35.0030000     GPS         TIME OF LAST OBS    
G L1C                                                       SYS / PHASE SHIFT   
G L2X  0.00000                                              SYS / PHASE SHIFT   
R L1C                                                       SYS / PHASE SHIFT   
R L2C                                                       SYS / PHASE SHIFT   
E L1X  0.00000                                              SYS / PHASE SHIFT   
E L7X  0.00000                                              SYS / PHASE SHIFT   
J L1C                                                       SYS / PHASE SHIFT   
J L2X  0.00000                                              SYS / PHASE SHIFT   
S L1C                                                       SYS / PHASE SHIFT   
C L2I                                                       SYS / PHASE SHIFT   
C L7I                                                       SYS / PHASE SHIFT   
  8 R06 -4 R07  5 R09 -2 R10 -7 R16 -1 R20  2 R21  4 R22 -3 GLONASS SLOT / FRQ #
 C1C    0.000 C1P    0.000 C2C    0.000 C2P    0.000        GLONASS COD/PHS/BIS 
                                                            END OF HEADER       
> 2025 10 27 01 31 38.0030000  0 38                     
G24  21706133.768   114066505.6101      -2486.243          33.000    21706133.226                       -1937.425          28.000  
S37  37400395.388   196540403.400        -303.571          43.000  
G18  21806875.833   114595903.589       -1952.630          44.000    21806874.228    89295476.122       -1521.552          41.000  
G23  21548224.161   113236677.7191       1176.421          40.000    21548224.314    88236391.247         916.987          33.000  
S28  38223197.101   200864260.938        -301.255          42.000  
C38  37167396.553   193540384.4991        332.823          41.000                                                                  
C39  36934364.102   192326929.226           5.924          44.000                                                                  
C13  37934008.624   197532332.265         589.694          39.000    37933995.659                         456.150          30.000  
C32  25129219.303                         982.727          28.000                                                                  
C41  24210342.843                        -422.312          25.000                                                                  
C08  37697336.735   196299934.0551        555.144          35.000    37697317.776                         429.444          31.000  
R16  21919228.019   117088561.2491       -734.031          48.000    21919226.400    91068888.1941       -571.321          40.000  
R09  21738876.812   116084397.524        2728.314          46.000    21738875.562    90287881.177        2121.954          42.000  
R07  23035569.715                         716.509          31.000    23035589.808                         551.811          23.000  
R21  21943181.592   117422408.262       -3150.543          48.000    21943177.217    91328503.692       -2450.635          40.000  
R20  24494608.564                       -4425.963          22.000                                                                  
R10  24888268.551                        3881.053          24.000                                                                  
E33  24707792.727                          65.513          32.000    24707789.554    99488021.111          50.130          38.000  
E26  25228141.862   132574779.661       -2472.955          45.000    25228141.856   101583269.785       -1894.834          41.000  
S29  37804968.922   198666446.0191       -303.934          43.000  
E29  25158587.546   132209267.957       -1067.264          40.000    25158587.436   101303205.204        -817.647          32.000  
E19  25456295.918                         274.515          30.000    25456308.545                         210.765          29.000  
C16  37544758.946   195505403.003         173.382          42.000    37544748.618   151177137.161         134.105          41.000  
C27  24755154.838   128906589.0551      -2275.604          41.000                                                                  
C09  38445749.618   200197109.2271        473.357          43.000    38445737.489   154805036.3531        366.165          42.000  
C25  23900630.878   124456863.3081      -1217.733          43.000                                                                  
C10  40755237.495   212223215.070       -1260.531          39.000    40755227.470   164104424.5101       -974.031          33.000  
R22  22632571.492   120814213.663         880.117          38.000    22632542.308                         677.786          20.000  
R06  22225272.072                        -321.511          22.000                                                                  
G15  23964903.145                       -2331.589          23.000                                                                  
G32  24476496.170                         925.556          31.000    24476527.624                         719.669          21.000  
J02  38080430.723   200113957.965        -293.957          38.000    38080429.967   155933011.307        -228.807          39.000  
G12  24444044.764   128454322.768        1791.155          37.000    24444049.053   100094275.679        1395.563          35.000  
J07  37400399.681   196540424.666        -303.469          40.000    37400396.729   153148376.163        -236.678          43.000  
J03  36876126.334   193785346.6611       -210.112          44.000    36876125.457   151001569.859        -164.021          44.000  
G10  24392161.855                        2494.449          26.000    24392171.626                        1946.532          19.000  
G25                                                                  24428708.526                        2017.936          30.000  
J04                                                                  40293054.028   164993319.1291        115.250          41.000  
> 2025 10 27 01 31 39.0030000  0 36                     
G24  21706606.865   114068992.243       -2486.920          33.000    21706606.309    88884911.760       -1937.592          27.000  
S37  37400453.128   196540706.971        -303.442          43.000  
G18  21807247.547   114597856.608       -1953.400          43.000    21807245.833    89296997.977       -1522.186          39.000  
G23  21548000.394   113235501.477        1175.783          40.000    21547999.479    88235474.689         916.583          36.000  
S28  38223254.418   200864562.112        -301.327          40.000  
C38  37167332.751   193540051.920         332.236          41.000                                                                  
C39  36934363.156   192326923.392           5.575          44.000                                                                  
C13  37933895.245   197531742.631         589.414          39.000    37933882.806   152744031.036         456.320          31.000  
C32  25129028.380   130853464.5701        982.801          28.000                                                                  
C41  24210426.863                        -420.991          25.000                                                                  
C08  37697230.170   196299379.215         554.532          35.000    37697211.285   151791050.258         428.793          33.000  
R16  21919365.534   117089295.892        -735.115          48.000    21919363.839    91069459.566        -571.578          39.000  
R09  21738366.001   116081669.587        2727.460          47.000    21738364.700    90285759.431        2121.594          41.000  
R07  23035436.433   123310465.251         716.495          31.000    23035454.816                         568.513          20.000  
R21  21943770.324   117425559.088       -3151.144          48.000    21943766.055    91330954.351       -2451.316          40.000  
R20  24495434.809                       -4419.681          23.000                                                                  
E33  24707779.674   129840306.939          64.347          30.000    24707777.283    99487971.246          49.718          39.000  
E26  25228612.285   132577252.803       -2473.427          45.000    25228612.340   101585164.790       -1895.121          39.000  
S29  37805026.675   198666749.872        -304.194          42.000  
E29  25158790.547   132210335.323       -1067.418          40.000    25158790.696   101304023.077        -817.815          33.000  
E19  25456249.932   133773293.170         274.640          30.000    25456256.288   102501784.323         210.373          30.000  
C16  37544725.790   195505229.675         173.251          43.000    37544715.325   151177003.151         133.792          40.000  
C27  24755591.890   128908864.728       -2275.867          42.000                                                                  
C09  38445658.796   200196635.910         473.114          42.000    38445646.629   154804670.379         365.924          42.000  
C25  23900864.856   124458081.592       -1218.408          43.000                                                                  
C10  40755479.588   212224475.621       -1260.306          39.000    40755469.523   164105399.321        -974.885          33.000  
R22  22632406.444   120813333.641         879.519          38.000    22632375.144                         688.659          18.000  
R06  22225332.480                        -322.468          22.000                                                                  
G32  24476329.150   128623977.4842        925.702          30.000    24476349.421                         724.938          18.000  
J02  38080486.408   200114251.409        -293.469          40.000    38080485.630   155933239.962        -228.540          39.000  
G12  24443703.989   128452531.955        1790.994          37.000    24443708.160   100092880.258        1394.652          34.000  
J07  37400457.404   196540728.236        -303.293          40.000    37400454.529   153148612.694        -236.498          42.000  
J03  36876166.317   193785556.985        -210.553          45.000    36876165.458   151001733.724        -164.195          41.000  
G10  24391685.910   128179193.3532       2495.144          25.000    24391694.973                        1943.953          21.000  
G25                                                                  24428217.775   100029457.973        2017.743          30.000  
J04                                                                  40293025.971   164993204.068         115.104          41.000  
> 2025 10 27 01 31 40.0030000  0 36                     
G24  21707080.086   114071479.221       -2487.329          32.000    21707079.073    88886849.632       -1937.389          27.000  
S37  37400510.948   196541010.440        -303.497          44.000  
G18  21807619.307   114599810.112       -1953.796          42.000    21807617.666    89298520.210       -1522.491          39.000  
G23  21547776.526   113234325.383        1176.092          40.000    21547775.511    88234558.298         916.205          34.000  
S28  38223311.670   200864863.078        -300.845          40.000  
C38  37167268.884   193539719.246         332.691          41.000                                                                  
C39  36934362.140   192326917.583           5.931          45.000                                                                  
C13  37933782.048   197531152.842         590.190          40.000    37933769.609   152743574.993         456.569          31.000  
C32  25128838.693                1        983.576          27.000                                                                  
C41  24210509.627                        -421.672          25.000                                                                  
C08  37697123.567   196298824.232         555.168          35.000    37697104.750   151790621.113         429.454          33.000  
R16  21919503.188   117090031.227        -735.364          48.000    21919501.499    91070031.498        -572.048          39.000  
R09  21737855.223   116078942.014        2727.429          47.000    21737853.899    90283637.985        2121.356          41.000  
R07  23035302.963   123309748.427         718.020          31.000    23035321.501                         564.815          20.000  
R21  21944359.271   117428710.332       -3151.608          47.000    21944355.001    91333405.315       -2451.598          40.000  
R20  24496260.335                       -4421.299          25.000                                                                  
E33  24707770.017   129840242.164          65.337          29.000    24707764.774    99487921.658          49.446          39.000  
E26  25229082.938   132579726.167       -2473.521          45.000    25229083.029   101587059.936       -1895.198          40.000  
S29  37805084.476   198667053.574        -303.800          42.000  
E29  25158993.613   132211402.576       -1067.322          41.000    25158993.684   101304840.887        -817.963          33.000  
E19  25456186.626   133773018.458         274.663          31.000    25456204.091   102501573.830         210.828          31.000  
C16  37544692.553   195505056.390         173.358          44.000    37544682.077   151176869.179         133.982          40.000  
C27  24756028.943   128911140.572       -2276.312          41.000                                                                  
C09  38445567.859   200196162.640         473.355          42.000    38445555.742   154804304.429         365.826          41.000  
C25  23901098.835   124459300.215       -1218.508          44.000                                                                  
C10  40755721.642   212225736.048       -1260.480          39.000    40755711.469   164106373.890        -974.427          34.000  
R22  22632241.454   120812454.238         879.371          37.000    22632208.763                         686.412          20.000  
R06  22225394.579                        -321.296          22.000                                                                  
G32  24476152.457   128623048.6793        924.953          29.000    24476170.918                         721.472          22.000  
J02  38080542.017   200114544.661        -293.058          40.000    38080540.779   155933468.472        -228.348          40.000  
G12  24443363.318   128450741.230        1790.530          37.000    24443367.300   100091484.830        1395.082          34.000  
J07  37400515.151   196541031.701        -303.239          41.000    37400512.332   153148849.181        -236.318          42.000  
J03  36876206.221   193785767.287        -210.307          46.000    36876205.523   151001897.604        -163.795          42.000  
G10  24391212.554   128176698.3992       2494.829          26.000    24391219.312                        1929.708          20.000  
G25                                                                  24427725.385   100027439.626        2018.174          29.000  
J04                                                                  40292997.725   164993088.819         115.557          42.000  
> 2025 10 27 01 31 41.0030000  0 37                     
G24  21707553.345   114073966.572       -2487.598          33.000    21707552.067    88888787.906       -1938.910          27.000  
S37  37400568.719   196541313.807        -303.394          45.000  
G18  21807991.174   114601764.113       -1954.077          38.000    21807989.474    89300042.804       -1522.559          38.000  
G23  21547552.685   113233149.527        1176.123          38.000    21547551.280    88233642.033         916.263          34.000  
S28  38223369.028   200865163.932        -301.135          34.000  
C38  37167204.927   193539386.600         332.256          42.000                                                                  
C39  36934361.046   192326911.894           5.311          43.000                                                                  
C13  37933668.794   197530562.944         590.442          37.000    37933656.402   152743118.813         456.916          32.000  
C32  25128648.088   130851464.1093        984.456          31.000                                                                  
C41  24210591.903   126070904.7103       -420.171          26.000                                                                  
C08  37697017.026   196298269.156         555.103          36.000    37696998.350   151790191.961         428.479          36.000  
R16  21919641.099   117090767.337        -736.110          48.000    21919639.260    91070603.994        -572.872          42.000  
R09  21737344.490   116076214.824        2726.715          45.000    21737343.238    90281516.863        2120.496          42.000  
R07  23035169.159   123309031.534         714.934          30.000    23035185.601                         557.753          23.000  
R21  21944948.233   117431862.046       -3152.657          44.000    21944943.957    91335856.612       -2452.002          35.000  
R20  24497084.656   130996920.0683      -4421.550          27.000    24497093.914   101886531.8762      -3438.220          26.000  
E33  24707754.976   129840177.659          63.466          29.000    24707752.477    99487872.325          48.786          37.000  
E26  25229553.899   132582199.724       -2473.974          43.000    25229553.763   101588955.267       -1895.137          40.000  
S29  37805142.318   198667357.132        -303.289          38.000  
E29  25159196.994   132212469.763       -1066.696          39.000    25159196.874   101305658.504        -817.204          34.000  
E19  25456126.410   133772743.862         274.520          33.000    25456152.055   102501363.480         210.091          30.000  
C16  37544659.320   195504883.233         173.188          41.000    37544648.817   151176735.287         133.994          36.000  
C27  24756466.052   128913416.651       -2276.837          37.000                                                                  
C09  38445477.043   200195689.470         472.652          40.000    38445464.908   154803938.558         365.755          39.000  
C25  23901332.929   124460519.313       -1219.206          44.000                                                                  
C10  40755963.650   212226996.277       -1260.107          38.000    40755953.497   164107348.391        -973.825          33.000  
R22  22632076.692   120811575.648         877.985          37.000    22632043.787                         686.239          20.000  
R06  22225454.948                        -328.031          22.000                                                                  
G32  24475999.867                         925.622          29.000    24475992.349   100225096.4881        721.005          25.000  
J02  38080597.527   200114837.765        -293.106          42.000    38080596.013   155933696.990        -228.712          40.000  
E21  28477586.974                        1836.560          22.000                                                                  
G12  24443022.457   128448950.583        1790.336          35.000    24443026.393   100090089.578        1394.807          34.000  
J07  37400572.874   196541335.077        -303.213          42.000    37400570.071   153149085.523        -236.030          42.000  
J03  36876246.227   193785977.642        -210.425          45.000    36876245.637   151002061.500        -164.132          42.000  
G10  24390738.526   128174203.2932       2495.608          27.000    24390745.144                        1947.229          28.000  
G25                                                                  24427231.557                        2020.236          21.000  
J04                                                                  40292969.524   164992973.427         115.557          43.000  
> 2025 10 27 01 31 42.0030000  0 37                     
G24  21708026.601   114076454.600       -2488.824          31.000    21708025.478    88890726.577       -1938.855          27.000  
S37  37400626.385   196541617.236        -303.467          46.000  
G18  21808363.133   114603718.776       -1954.999          41.000    21808361.472    89301565.891       -1523.474          39.000  
G23  21547329.094   113231973.991        1175.050          39.000    21547327.308    88232725.959         915.444          35.000  
S28  38223426.186   200865464.771        -300.881          29.000  
C38  37167141.121   193539054.032         332.523          42.000                                                                  
C39  36934359.954   192326906.365           5.559          45.000                                                                  
C13  37933555.461   197529973.138         589.656          36.000    37933543.123   152742662.718         456.387          32.000  
C32  25128461.228   130850490.9112        983.180          29.000                                                                  
C41  24210672.107   126071326.4192       -421.313          26.000                                                                  
C08  37696910.447   196297714.207         555.284          29.000    37696891.828   151789762.753         429.960          27.000  
R16  21919779.019   117091504.365        -737.406          43.000    21919777.221    91071177.215        -573.366          37.000  
R09  21736833.879   116073488.153        2726.453          47.000    21736832.664    90279396.051        2120.703          45.000  
R07  23035035.265   123308314.535         717.247          31.000    23035051.167    95906558.3823        558.034          31.000  
R21  21945537.324   117435014.237       -3152.748          45.000    21945533.124    91338308.384       -2451.976          36.000  
R20  24497909.506   131001341.8662      -4421.500          27.000    24497925.861                       -3437.856          25.000  
E33  24707736.518   129840113.836          63.324          33.000    24707740.364    99487823.423          48.655          40.000  
E26  25230024.686   132584673.721       -2473.875          43.000    25230024.815   101590850.888       -1895.857          41.000  
S29  37805200.082   198667660.905        -303.574          36.000  
E29  25159400.278   132213537.081       -1067.249          37.000    25159400.084   101306476.358        -817.933          37.000  
E19  25456071.529   133772469.503         274.225          33.000    25456099.889   102501153.178         210.043          28.000  
C16  37544626.010   195504710.229         172.877          43.000    37544615.620   151176601.530         133.398          39.000  
C27  24756903.159   128915692.731       -2276.477          40.000                                                                  
C09  38445386.296   200195216.424         473.201          40.000    38445373.967   154803572.751         365.789          41.000  
C25  23901567.071   124461738.942       -1219.764          41.000                                                                  
C10  40756205.563   212228256.211       -1259.866          38.000    40756195.659   164108322.628        -974.500          36.000  
R22  22631912.004   120810697.914         877.467          40.000    22631878.949                         685.832          21.000  
R06  22225516.465                        -337.414          22.000                                                                  
G32  24475820.859   128621306.0903        925.671          30.000    24475810.774   100224375.258         720.771          26.000  
J02  38080652.852   200115131.126        -292.924          38.000    38080651.081   155933925.451        -228.276          42.000  
E21  28477244.207                        1830.483          22.000                                                                  
G12  24442681.705   128447160.164        1790.329          38.000    24442685.515   100088694.384        1395.134          36.000  
J07  37400630.553   196541638.510        -303.481          43.000    37400627.749   153149321.964        -236.575          43.000  
J03  36876286.265   193786188.161        -210.443          46.000    36876285.657   151002225.486        -164.124          44.000  
G10  24390262.776   128171707.9722       2494.773          27.000    24390266.914                        1943.402          27.000  
G25                                                                  24426741.079   100023420.7661       2017.623          30.000  
J04                                                                  40292941.314   164992858.142         115.117          40.000  
> 2025 10 27 01 31 43.0030000  0 37                     
G24  21708500.231   114078943.083       -2488.354          32.000    21708498.876    88892665.653       -1939.155          27.000  
S37  37400684.141   196541920.759        -303.412          46.000  
G18  21808735.268   114605674.085       -1955.487          41.000    21808733.541    89303089.478       -1523.853          39.000  
G23  21547105.589   113230798.854        1175.012          39.000    21547103.481    88231810.262         915.610          35.000  
S28  38223483.346                        -303.857          30.000  
C38  37167077.230   193538721.531         332.452          43.000                                                                  
C39  36934358.936   192326901.124           4.964          45.000                                                                  
C13  37933442.196   197529383.343         589.986          37.000    37933429.872   152742206.635         456.843          33.000  
C32  25128271.295   130849507.6432        982.925          29.000                                                                  
C41  24210753.159   126071747.9932       -421.182          26.000                                                                  
C08  37696803.882   196297159.226         555.449          32.000    37696785.254   151789332.7053        428.850          27.000  
R16  21919917.117   117092242.322        -738.425          44.000    21919915.271    91071751.208        -574.656          37.000  
R09  21736323.386   116070762.011        2725.824          48.000    21736322.162    90277275.723        2120.154          45.000  
R07  23034901.925   123307597.706         716.168          31.000    23034919.785    95906000.3041        558.063          31.000  
R21  21946126.670   117438167.077       -3153.027          44.000    21946122.439    91340760.584       -2452.553          35.000  
R20  24498735.101   131005763.1631      -4421.943          27.000    24498757.405                       -3439.054          25.000  
E33  24707719.435   129840050.619          63.211          33.000    24707728.366    99487774.977          48.256          40.000  
E26  25230495.310   132587148.099       -2474.722          43.000    25230495.916   101592746.845       -1896.095          41.000  
S29  37805257.740   198667964.652        -303.123          35.000  
E29  25159603.122   132214604.516       -1067.459          38.000    25159603.508   101307294.232        -817.769          37.000  
E19  25456020.226   133772195.324         273.711          33.000    25456047.809   102500943.052         209.775          28.000  
C16  37544592.810   195504537.489         172.524          43.000    37544582.493   151176467.949         133.391          40.000  
C27  24757340.456   128917969.168       -2276.318          40.000                                                                  
C09  38445295.571   200194743.574         472.999          40.000    38445283.170   154803207.139         365.597          40.000  
C25  23901801.438   124462959.163       -1220.453          41.000                                                                  
C10  40756447.504   212229516.313       -1260.102          38.000    40756437.991   164109297.011        -974.434          36.000  
R22  22631747.128   120809821.038         876.331          41.000    22631712.737                         686.181          21.000  
R06  22225578.944                        -321.143          20.000                                                                  
G32  24475639.565   128620353.5282        925.752          29.000    24475626.651                         721.517          25.000  
J02  38080707.632   200115424.524        -294.122          36.000    38080706.260   155934153.986        -228.660          41.000  
E21  28476897.909                        1837.605          22.000                                                                  
G12  24442340.983   128445369.986        1789.854          39.000    24442344.637   100087299.429        1394.977          36.000  
J07  37400688.417   196541942.050        -303.756          43.000    37400685.464   153149558.477        -236.677          43.000  
J03  36876326.342   193786398.863        -210.923          45.000    36876325.733   151002389.671        -164.428          43.000  
G10  24389784.839   128169212.869        2495.044          28.000    24389790.143                        1944.929          26.000  
G25                                                                  24426251.890   100021402.226        2019.272          31.000  
J04                                                                  40292913.027   164992742.691         115.383          40.000  
> 2025 10 27 01 31 44.0030000  0 37                     
G24  21708973.893   114081432.020       -2489.728          32.000    21708972.299    88894605.059       -1939.203          27.000  
S37  37400741.984   196542224.202        -303.778          45.000  
G18  21809107.430   114607629.829       -1955.975          41.000    21809105.700    89304613.427       -1523.975          40.000  
G23  21546882.123   113229623.882        1174.882          40.000    21546879.880    88230894.694         915.703          34.000  
S28  38223539.729                        -312.842          30.000  
C38  37167013.304   193538389.004         332.170          43.000                                                                  
C39  36934357.857   192326895.934           4.678          46.000                                                                  
C13  37933328.882   197528793.452         589.594          37.000    37933316.716   152741750.486         456.689          33.000  
C32  25128082.649   130848524.2072        983.930          28.000                                                                  
C41  24210834.640   126072169.6072       -421.996          27.000                                                                  
C08  37696697.434   196296604.207         555.154          34.000    37696678.525   151788903.4832        429.390          29.000  
R16  21920055.383   117092981.033        -739.130          44.000    21920053.530    91072325.760        -575.233          38.000  
R09  21735813.008   116068036.261        2724.994          49.000    21735811.583    90275155.676        2119.653          45.000  
R07  23034768.118   123306880.487         717.840          30.000    23034781.659    95905442.548         557.837          31.000  
R21  21946715.990   117441320.330       -3153.720          42.000    21946711.734    91343213.094       -2452.909          35.000  
R20  24499558.876   131010184.751       -4421.583          26.000    24499588.295                       -3439.545          25.000  
E33  24707704.471   129839987.778          62.806          34.000    24707716.146    99487726.822          47.767          41.000  
E26  25230966.133   132589622.682       -2475.070          42.000    25230966.813   101594642.958       -1896.292          41.000  
G25  24425769.355   128358283.8252       2590.502          28.000    24425755.254   100019383.767        2016.401          30.000  
S29  37805315.475   198668268.336        -304.303          34.000  
E29  25159806.179   132215671.867       -1067.131          38.000    25159806.542   101308112.096        -818.186          36.000  
E19  25455968.993   133771921.100         274.114          32.000    25455995.676   102500732.972         209.612          28.000  
C16  37544559.647   195504364.808         172.241          44.000    37544549.296   151176334.411         133.321          40.000  
C27  24757777.694   128920245.752       -2277.368          40.000                                                                  
C09  38445204.886   200194270.783         472.183          40.000    38445192.430   154802841.546         365.134          40.000  
C25  23902035.890   124464179.807       -1220.812          39.000                                                                  
C10  40756689.430   212230776.243       -1261.392          38.000    40756680.260   164110271.239        -975.109          35.000  
R22  22631582.460   120808944.806         875.872          41.000    22631547.046                         688.069          20.000  
R06  22225641.687                        -339.475          19.000                                                                  
G32  24475461.420   128619427.9952        926.065          28.000    24475444.671                         721.638          24.000  
J02  38080762.458   200115717.741        -294.309          37.000    38080761.464   155934382.453        -229.186          41.000  
E21  28476549.821                        1856.361          22.000                                                                  
G12  24442000.424   128443579.888        1789.809          38.000    24442003.880   100085904.589        1394.560          35.000  
J07  37400746.083   196542245.469        -303.806          41.000    37400743.121   153149794.915        -236.890          43.000  
J03  36876366.420   193786609.594        -211.500          45.000    36876365.828   151002553.853        -164.465          43.000  
G10  24389308.810   128166717.615        2495.379          28.000    24389312.487                        1945.339          26.000  
J04                                                                  40292884.771   164992627.121         115.283          41.000  
> 2025 10 27 01 31 45.0030000  0 38                     
G24  21709447.409   114083921.360       -2489.288          32.000    21709445.994    88896544.860       -1940.182          27.000  
S37  37400799.668   196542527.553        -303.455          46.000  
G18  21809479.661   114609586.119       -1956.482          41.000    21809478.151    89306137.823       -1524.585          41.000  
G23  21546658.561   113228449.166        1174.652          40.000    21546656.366    88229979.354         915.332          34.000  
S28  38223597.275   200866358.5153       -300.443          33.000  
C38  37166949.472   193538056.448         332.693          42.000                                                                  
C39  36934356.847   192326890.829           5.056          47.000                                                                  
C13  37933215.604   197528203.446         589.998          39.000    37933203.604   152741294.277         456.679          33.000  
C32  25127895.699   130847540.887         983.374          28.000                                                                  
C41  24210917.230   126072591.184        -422.468          27.000                                                                  
C08  37696590.819   196296049.088         555.254          34.000    37696571.838   151788474.260         429.122          29.000  
R16  21920193.865   117093720.577        -739.983          45.000    21920192.058    91072900.964        -575.664          38.000  
R09  21735302.757   116065310.860        2725.183          49.000    21735301.136    90273035.972        2119.653          45.000  
R07  23034634.500   123306163.326         717.402          31.000    23034645.393    95904884.749         558.014          31.000  
R21  21947305.347   117444473.993       -3153.609          43.000    21947301.174    91345665.963       -2453.090          35.000  
R20  24500383.358                1      -4420.680          25.000    24500417.529                       -3437.750          26.000  
R10  24883170.221                        3881.571          25.000                                                                  
E33  24707690.390   129839925.263          62.379          33.000    24707704.266    99487678.978          47.577          40.000  
E26  25231436.969   132592097.504       -2475.085          42.000    25231437.850   101596539.248       -1896.237          42.000  
G25  24425288.529   128355693.2622       2590.405          28.000    24425259.065   100017365.099        2018.818          28.000  
S29  37805373.200   198668571.871        -303.410          37.000  
E29  25160009.384   132216739.235       -1067.396          38.000    25160009.723   101308929.903        -817.740          36.000  
E19  25455917.938   133771647.026         274.024          33.000    25455943.698   102500522.896         209.865          28.000  
C16  37544526.496   195504192.218         172.466          45.000    37544516.185   151176200.968         133.389          40.000  
C27  24758214.875   128922522.437       -2276.880          40.000                                                                  
C09  38445114.161   200193798.005         472.695          41.000    38445101.605   154802475.971         365.232          41.000  
C25  23902270.521   124465400.937       -1221.261          42.000                                                                  
C10  40756931.358   212232035.846       -1259.535          38.000    40756922.416   164111245.248        -973.896          34.000  
R22  22631418.016   120808069.307         875.206          41.000    22631381.603                         680.392          20.000  
R06  22225702.102                        -324.996          18.000                                                                  
G32  24475282.168   128618502.5042        924.984          29.000    24475263.774                         720.782          26.000  
J02  38080817.304   200116010.787        -293.463          36.000    38080816.481   155934610.794        -228.401          42.000  
E21  28476203.263                        1834.348          21.000                                                                  
G12  24441659.668   128441789.961        1789.455          39.000    24441663.149   100084509.789        1395.003          36.000  
J07  37400803.760   196542548.831        -303.444          43.000    37400800.894   153150031.310        -236.370          44.000  
J03  36876406.593   193786820.321        -210.812          44.000    36876406.005   151002718.104        -164.219          43.000  
G10  24388833.479   128164222.365        2495.667          28.000    24388836.368                        1945.054          26.000  
J04                                                                  40292856.475   164992511.417         115.670          41.000  
> 2025 10 27 01 31 46.0030000  0 38                     
G24  21709920.961   114086411.274       -2489.484          30.000    21709919.689    88898485.010       -1939.294          26.000  
S37  37400857.423   196542830.977        -303.461          45.000  
G18  21809852.050   114611543.042       -1957.159          41.000    21809850.650    89307662.721       -1525.116          41.000  
G23  21546435.187   113227274.746        1174.390          38.000    21546432.951    88229064.219         915.157          33.000  
S28  38223654.536   200866659.4742       -301.178          33.000  
C38  37166885.539   193537723.965         332.430          41.000                                                                  
C39  36934355.978   192326885.926           4.822          45.000                                                                  
C13  37933102.305   197527613.441         589.927          38.000    37933090.424   152740838.085         456.407          33.000  
C32  25127706.099   130846557.464         983.289          29.000                                                                  
C41  24210998.324   126073012.803        -421.844          26.000                                                                  
C08  37696484.320   196295494.158         553.937          32.000    37696465.131   151788045.011         428.985          28.000  
R16  21920332.478   117094460.974        -740.890          47.000    21920330.665    91073476.849        -576.125          38.000  
R09  21734792.526   116062585.968        2724.792          48.000    21734790.884    90270916.618        2119.409          43.000  
R07  23034500.768   123305446.095         716.667          32.000    23034510.510    95904326.873         558.141          31.000  
R21  21947894.824   117447628.225       -3154.430          43.000    21947890.625    91348119.211       -2453.074          36.000  
R20  24501207.409                       -4421.335          25.000    24501246.314                       -3437.392          26.000  
R10  24882442.662                        3881.474          25.000                                                                  
E33  24707678.273                          62.625          26.000    24707692.365    99487631.552          47.085          38.000  
E26  25231907.601   132594572.718       -2475.299          41.000    25231908.945   101598435.841       -1896.730          42.000  
G25  24424795.072   128353102.6562       2590.399          29.000    24424759.258                        2020.147          26.000  
S29  37805430.969   198668875.541        -303.571          37.000  
E29  25160212.442   132217806.625       -1067.430          39.000    25160212.974   101309747.824        -817.917          36.000  
E19  25455866.290   133771373.115         274.159          33.000    25455891.728   102500313.013         210.149          28.000  
C16  37544493.292   195504019.854         172.227          43.000    37544483.045   151176067.673         133.269          40.000  
C27  24758652.190   128924799.375       -2277.094          39.000                                                                  
C09  38445023.403   200193325.396         472.527          41.000    38445010.859   154802110.506         365.516          41.000  
C25  23902505.279   124466622.583       -1221.894          43.000                                                                  
C10  40757173.304   212233295.396       -1259.280          40.000    40757164.514   164112219.228        -973.638          34.000  
R22  22631253.856   120807194.702         874.404          37.000    22631217.878                         678.529          20.000  
R06  22225764.112                        -323.674          19.000                                                                  
G32  24475105.559   128617577.2342        925.521          28.000    24475083.860   100221376.6111        721.309          27.000  
J02  38080872.238   200116303.879        -292.684          35.000    38080871.563   155934839.179        -228.376          42.000  
E21  28475859.386                        1835.739          23.000                                                                  
G12  24441319.043   128440000.166        1790.295          38.000    24441322.338   100083115.197        1394.726          35.000  
J07  37400861.471   196542852.243        -303.528          41.000    37400858.639   153150267.750        -236.371          44.000  
J03  36876446.738   193787031.250        -211.007          45.000    36876446.139   151002882.444        -164.306          44.000  
G10  24388358.879   128161727.120        2495.917          27.000    24388359.803                        1944.830          26.000  
J04                                                                  40292828.108   164992395.719         115.374          38.000  
> 2025 10 27 01 31 47.0030000  0 38                     
G24  21710394.779   114088901.663       -2490.631          30.000    21710393.523    88900425.538       -1940.533          26.000  
S37  37400915.172   196543134.375        -303.546          44.000  
G18  21810224.561   114613500.522       -1957.642          42.000    21810223.193    89309188.012       -1525.592          40.000  
G23  21546211.848   113226100.593        1174.351          38.000    21546209.571    88228149.368         915.330          35.000  
S28  38223711.800   200866960.3942       -300.667          39.000  
C38  37166821.669   193537391.535         331.671          42.000                                                                  
C39  36934355.149   192326881.190           4.458          45.000                                                                  
C13  37932988.935   197527023.431         590.093          37.000    37932977.113   152740381.910         455.812          33.000  
C32  25127517.002   130845573.907         983.077          30.000                                                                  
C41  24211079.607   126073434.320        -421.689          25.000                                                                  
C08  37696377.771   196294939.070         554.546          32.000    37696358.422   151787615.767         430.124          28.000  
R16  21920471.137   117095202.135        -741.815          46.000    21920469.410    91074053.326        -577.461          38.000  
R09  21734282.334   116059861.523        2724.139          46.000    21734280.660    90268797.566        2119.183          41.000  
R07  23034366.983   123304728.804         717.000          32.000    23034376.197    95903769.088         557.190          31.000  
R21  21948484.234   117450782.911       -3154.824          45.000    21948480.125    91350572.864       -2453.538          38.000  
R20  24502033.148                       -4421.179          26.000    24502077.448                       -3439.653          26.000  
R10  24881716.554                        3877.634          25.000                                                                  
E26  25232378.940   132597048.242       -2475.966          44.000    25232379.946   101600332.671       -1896.780          42.000  
G25  24424294.091   128350511.9962       2590.445          30.000    24424262.550                        2021.405          24.000  
S29  37805488.838   198669179.229        -303.563          40.000  
E29  25160415.867   132218874.051       -1067.670          39.000    25160416.099   101310565.790        -817.855          36.000  
E19  25455814.186   133771099.191         274.210          34.000    25455839.707   102500103.246         208.989          27.000  
C16  37544460.177   195503847.609         171.939          43.000    37544449.918   151175934.451         132.959          41.000  
C27  24759089.488   128927076.416       -2277.075          39.000                                                                  
C09  38444932.710   200192852.950         472.344          41.000    38444920.162   154801745.164         365.199          40.000  
C25  23902739.952   124467844.719       -1222.833          42.000                                                                  
C10  40757415.052   212234554.932       -1259.603          42.000    40757406.610   164113193.189        -973.431          35.000  
R22  22631089.812   120806320.770         874.454          31.000    22631053.706                         677.992          21.000  
R06  22225825.415                        -328.967          19.000                                                                  
G32  24474931.791   128616651.9442        924.883          33.000    24474911.414   100220655.574         721.469          29.000  
J02  38080927.354   200116596.812        -291.379          29.000    38080926.814   155935067.585        -229.496          40.000  
E21  28475511.656                        1835.156          25.000                                                                  
G12  24440978.507   128438210.646        1788.513          36.000    24440981.709   100081720.768        1394.155          34.000  
J07  37400919.343   196543155.661        -303.613          40.000    37400916.367   153150504.213        -236.431          45.000  
J03  36876486.934   193787242.273        -211.125          45.000    36876486.253   151003046.906        -164.523          44.000  
G10  24387884.634   128159231.844        2494.897          28.000    24387883.617    99864306.2151       1944.632          26.000  
E33                                                                  24707680.720    99487584.494          47.116          38.000  
J04                                                                  40292799.805   164992279.851         116.044          41.000  
> 2025 10 27 01 31 48.0030000  0 37                     
G24  21710868.790   114091392.616       -2491.235          31.000    21710867.147    88902366.491       -1940.270          26.000  
S37  37400972.964   196543437.883        -303.412          43.000  
G18  21810597.223   114615458.699       -1958.508          44.000    21810595.773    89310713.878       -1526.599          41.000  
G23  21545988.431   113224926.931        1173.398          40.000    21545986.159    88227234.802         914.409          37.000  
S28  38223769.159   200867261.3012       -301.035          42.000  
C38  37166757.860   193537059.194         332.376          43.000                                                                  
C39  36934354.333   192326876.727           4.091          45.000                                                                  
C13  37932875.543   197526433.527         589.968          39.000    37932863.797   152739925.731         455.944          33.000  
C32  25127328.401   130844590.355         983.835          29.000                                                                  
C41  24211159.549   126073856.093        -422.100          26.000                                                                  
C08  37696271.145   196294384.145         554.410          36.000    37696251.846   151787186.743         428.938          33.000  
R16  21920610.163   117095944.308        -742.354          47.000    21920608.343    91074630.568        -577.484          39.000  
R09  21733772.226   116057137.642        2723.267          46.000    21733770.400    90266679.014        2118.182          42.000  
R07  23034233.338   123304011.502         717.405          30.000    23034241.939    95903212.130         557.981          24.000  
R21  21949073.905   117453938.258       -3155.766          49.000    21949069.818    91353027.015       -2454.685          41.000  
R20  24502860.936   131027803.0403      -4421.768          26.000    24502905.720                       -3438.039          26.000  
E26  25232850.580   132599524.180       -2476.308          45.000    25232850.921   101602229.878       -1897.326          42.000  
G25  24423786.816   128347921.4732       2590.258          29.000    24423772.571                        2019.446          26.000  
S29  37805546.739   198669482.978        -303.804          42.000  
E29  25160619.095   132219941.674       -1067.512          41.000    25160619.235   101311383.799        -817.775          36.000  
E19  25455762.542   133770825.749         273.198          34.000    25455787.690   102499893.648         209.031          32.000  
C16  37544427.209   195503675.648         171.823          43.000    37544416.855   151175801.480         133.144          41.000  
C27  24759526.722   128929353.826       -2277.979          41.000                                                                  
C09  38444842.115   200192380.746         471.797          43.000    38444829.497   154801379.997         365.112          41.000  
C25  23902974.790   124469067.478       -1222.959          44.000                                                                  
C10  40757656.881   212235814.376       -1259.501          40.000    40757648.526   164114167.077        -973.547          35.000  
R22  22630926.020   120805447.706         872.200          37.000    22630889.573                         680.589          22.000  
R06  22225887.988                        -324.205          22.000                                                                  
G32  24474756.929   128615727.0262        924.182          33.000    24474741.034   100219972.9221        719.802          28.000  
J02  38080982.357   200116890.068        -292.938          39.000    38080982.102   155935296.072        -228.397          40.000  
E21  28475157.432                        1837.941          25.000                                                                  
G12  24440638.034   128436421.352        1789.147          38.000    24440641.153   100080326.472        1394.275          33.000  
J07  37400977.161   196543459.158        -303.551          39.000    37400974.173   153150740.715        -236.584          43.000  
J03  36876527.058   193787453.487        -211.340          45.000    36876526.580   151003211.518        -164.707          42.000  
G10  24387409.934   128156703.5583       2494.761          27.000    24387408.706                        1937.589          22.000  
E33                                                                  24707669.159    99487537.904          46.204          41.000  
J04                                                                  40292771.570   164992164.068         115.739          42.000  
> 2025 10 27 01 31 49.0030000  0 37                     
G24  21711342.939   114093884.113       -2491.498          30.000    21711341.135    88904308.075       -1942.181          27.000  
S37  37401030.723   196543741.408        -303.882          44.000  
G18  21810970.048   114617417.545       -1959.088          40.000    21810968.531    89312240.260       -1526.581          41.000  
G23  21545765.146   113223753.574        1173.211          41.000    21545762.788    88226320.532         914.016          42.000  
S28  38223826.213                        -281.543          29.000  
C38  37166694.051   193536726.988         332.002          43.000                                                                  
C39  36934353.460   192326872.411           3.804          45.000                                                                  
C13  37932762.074   197525843.613         590.185          38.000    37932750.503   152739469.630         455.714          35.000  
C32  25127140.045   130843606.892         984.177          33.000                                                                  
C41  24211242.032   126074277.926        -421.278          26.000                                                                  
C08  37696164.605   196293829.232         554.763          36.000    37696145.229   151786757.716         429.228          37.000  
R16  21920749.210   117096687.289        -743.448          47.000    21920747.319    91075208.430        -578.634          37.000  
R09  21733262.073   116054414.227        2722.943          48.000    21733260.432    90264560.807        2117.896          41.000  
R07  23034099.656   123303294.159         717.784          30.000    23034108.142                1        559.242          25.000  
R21  21949663.665   117457094.314       -3156.569          34.000    21949659.656    91355481.764       -2455.011          32.000  
R20  24503689.041   131032224.220       -4420.971          27.000                                                                  
E33  24707656.100   129839609.0021         60.756          29.000    24707657.578    99487491.601          46.547          39.000  
E26  25233322.121   132602000.452       -2476.633          45.000    25233322.082   101604127.224       -1897.477          42.000  
G25  24423282.953   128345330.7712       2590.868          31.000    24423281.221                        2021.051          26.000  
S29  37805604.702   198669786.891        -302.874          28.000  
E29  25160822.275   132221009.319       -1067.351          41.000    25160822.162   101312201.902        -818.130          39.000  
E19  25455710.659   133770552.304         273.200          33.000    25455735.857   102499684.092         209.218          30.000  
C16  37544394.260   195503503.817         171.698          43.000    37544383.882   151175668.626         132.657          41.000  
C27  24759964.162   128931631.619       -2277.887          34.000                                                                  
C09  38444751.643   200191908.672         471.481          37.000    38444738.910   154801015.020         365.275          38.000  
C25  23903209.669   124470290.774       -1224.059          44.000                                                                  
C10  40757898.646   212237073.588       -1259.640          36.000    40757890.244   164115140.799        -973.697          26.000  
R22  22630762.163   120804575.374         873.524          30.000    22630724.717                         678.618          25.000  
R06  22225950.917                        -326.759          23.000                                                                  
G32  24474582.860   128614801.5431        924.059          32.000    24474566.457                         722.276          26.000  
J02  38081037.881   200117183.293        -294.505          40.000    38081037.166   155935524.535        -228.890          42.000  
E21  28474807.140                        1837.867          26.000                                                                  
G12  24440297.503   128434632.264        1789.635          38.000    24440300.546   100078932.417        1393.339          33.000  
J07  37401034.984   196543762.688        -303.965          40.000    37401031.838   153150977.211        -236.340          43.000  
J03  36876567.364   193787664.867        -211.828          45.000    36876566.716   151003376.216        -164.648          42.000  
G10  24386935.146   128154208.128        2494.694          28.000    24386934.991                        1950.697          28.000  
J04                                                                  40292743.366   164992048.223         115.808          43.000  
> 2025 10 27 01 31 50.0030000  0 38                     
G24  21711817.030   114096376.112       -2492.145          30.000    21711814.967    88906249.861       -1942.304          29.000  
S37  37401088.558   196544044.972        -303.918          44.000  
G18  21811343.062   114619376.914       -1959.808          42.000    21811341.403    89313767.028       -1527.216          42.000  
G23  21545541.840   113222580.458        1173.306          40.000    21545539.482    88225406.416         914.150          39.000  
S28  38223881.409   200867851.5543       -301.783          41.000  
C38  37166630.142   193536394.809         332.356          44.000                                                                  
C39  36934352.688   192326868.315           3.879          45.000                                                                  
C13  37932648.662   197525253.650         589.852          39.000    37932637.302   152739013.430         456.302          34.000  
C32  25126950.779   130842623.299         983.076          30.000                                                                  
C41  24211324.951   126074699.825        -421.866          26.000                                                                  
C08  37696058.110   196293274.357         554.547          37.000    37696038.806   151786328.619         429.091          38.000  
R16  21920888.479   117097431.083        -744.599          48.000    21920886.689    91075786.942        -579.058          40.000  
R09  21732752.217   116051691.379        2722.681          48.000    21732750.581    90262443.010        2117.480          40.000  
R07  23033965.863   123302577.478         717.272          22.000    23033975.359                         555.057          24.000  
R21  21950253.554   117460250.591       -3156.945          44.000    21950249.764    91357936.570       -2454.890          32.000  
R20  24504516.181                       -4423.976          24.000                                                                  
E33  24707648.618                          60.469          29.000    24707646.071    99487445.754          45.467          37.000  
E26  25233793.760   132604477.143       -2476.909          45.000    25233793.531   101606024.937       -1897.896          43.000  
G25  24422788.105   128342739.6751       2589.699          32.000    24422790.822                        2021.876          23.000  
S29  37805662.396   198670090.551        -304.203          36.000  
E29  25161025.516   132222076.982       -1067.668          41.000    25161025.478   101313019.994        -818.306          37.000  
E19  25455659.149   133770279.036         273.242          33.000    25455683.746   102499474.767         208.881          29.000  
C16  37544361.238   195503332.235         171.616          44.000    37544350.973   151175535.968         132.270          41.000  
C27  24760401.426   128933909.302       -2278.503          39.000                                                                  
C09  38444661.101   200191436.774         471.303          39.000    38444648.294   154800650.102         364.144          38.000  
C25  23903444.600   124471514.548       -1224.158          44.000                                                                  
C10  40758140.598   212238332.995       -1258.841          33.000    40758132.550                1       -974.386          26.000  
R22  22630598.514   120803704.220         871.274          35.000    22630562.468                         675.399          23.000  
R06  22226012.022                        -326.148          24.000                                                                  
G15  23970252.783                       -2337.219          27.000                                                                  
G32  24474409.926   128613891.6863        925.066          33.000    24474394.254   100218552.4281        721.052          31.000  
J02  38081093.276   200117476.454        -292.770          40.000    38081092.430   155935753.065        -228.576          41.000  
E21  28474458.865                        1839.736          26.000                                                                  
G12  24439956.984   128432843.402        1789.060          39.000    24439960.076   100077538.547        1393.741          34.000  
J07  37401092.721   196544066.245        -303.619          40.000    37401089.569   153151213.747        -236.710          45.000  
J03  36876607.675   193787876.418        -212.097          45.000    36876606.975   151003541.052        -165.038          40.000  
G10  24386463.984                        2495.436          27.000    24386458.716                        1942.712          21.000  
J04                                                                  40292715.023   164991932.277         115.924          45.000  
> 2025 10 27 01 31 51.0030000  0 38                     
G24  21712290.927   114098868.635       -2493.060          30.000    21712289.210    88908194.0271      -1942.328          31.000  
S37  37401146.365   196544348.532        -303.644          43.000  
G18  21811716.011   114621336.920       -1960.327          40.000    21811714.290    89315294.269       -1527.795          39.000  
G23  21545318.606   113221407.721        1172.356          37.000    21545316.161    88224492.556         913.683          40.000  
S28  38223938.806   200868152.4832       -301.067          42.000  
C38  37166566.395   193536062.712         332.088          44.000                                                                  
C39  36934352.011   192326864.370           3.751          45.000                                                                  
C13  37932535.310   197524663.684         590.048          37.000    37932524.106   152738557.256         456.405          33.000  
C32  25126761.990   130841639.700         982.679          34.000                                                                  
C41  24211408.314   126075121.769        -421.661          26.000                                                                  
C08  37695951.588   196292719.525         554.553          37.000    37695932.384   151785899.570         429.038          39.000  
R16  21921027.885   117098175.735        -745.278          50.000    21921025.962    91076366.091        -579.420          40.000  
R09  21732242.397   116048968.946        2722.296          49.000    21732240.718    90260325.558        2117.279          42.000  
R07  23033836.408   123301929.1393        716.222          30.000    23033839.795    95901514.1813        558.437          26.000  
R21  21950843.469   117463407.655       -3157.275          49.000    21950839.833    91360392.082       -2455.883          40.000  
R20  24505342.052                       -4422.590          26.000                                                                  
E26  25234265.618   132606954.235       -2477.246          39.000    25234264.509   101607922.990       -1898.518          37.000  
G25  24422294.588   128340148.902        2590.164          31.000    24422298.224                        2019.500          24.000  
S29  37805720.363   198670394.381        -304.128          42.000  
E29  25161228.912   132223144.694       -1067.734          39.000    25161228.791   101313838.144        -818.604          37.000  
E19  25455607.098   133770005.893         273.692          32.000    25455631.550   102499265.342         210.203          29.000  
C16  37544328.253   195503160.799         171.311          42.000    37544318.029   151175403.359         132.720          41.000  
C27  24760838.756   128936187.450       -2278.815          43.000                                                                  
C09  38444570.574   200190965.050         472.200          37.000    38444557.763   154800285.379         365.253          35.000  
C25  23903679.801   124472738.879       -1224.732          46.000                                                                  
C10  40758382.431   212239592.111       -1258.874          33.000    40758376.918   164117093.3713       -973.027          27.000  
R22  22630434.783   120802833.680         870.271          31.000    22630400.674                         681.805          23.000  
R06  22226074.276                        -326.591          25.000                                                                  
G15  23970691.024                       -2338.502          26.000                                                                  
G32  24474234.331   128612967.0942        925.900          29.000    24474220.873   100217832.083         720.380          31.000  
J02  38081148.780   200117769.768        -292.621          41.000    38081147.514   155935981.438        -228.262          42.000  
E21  28474107.857                        1837.415          27.000                                                                  
G12  24439616.724   128431054.778        1788.485          36.000    24439619.595   100076144.785        1393.607          30.000  
J07  37401150.577   196544369.800        -303.440          39.000    37401147.358   153151450.328        -236.866          43.000  
J03  36876648.063   193788088.019        -212.286          43.000    36876647.156   151003705.875        -165.126          38.000  
G10  24385994.245   128149263.7303       2498.418          26.000    24385981.606                        1942.324          24.000  
E33                                                                  24707634.625    99487400.254          45.210          36.000  
J04                                                                  40292686.694   164991816.323         116.042          44.000  
> 2025 10 27 01 31 52.0030000  0 39                     
G24  21712765.291   114101361.558       -2493.457          33.000    21712763.519    88910136.525       -1943.433          30.000  
S37  37401204.031   196544652.039        -303.925          43.000  
G18  21812089.143   114623297.366       -1960.730          43.000    21812087.338    89316821.894       -1527.802          42.000  
G23  21545095.437   113220235.070        1172.465          36.000    21545092.945    88223578.813         913.480          38.000  
S28  38223996.168   200868453.3782       -300.411          41.000  
C38  37166502.771   193535730.528         332.012          44.000                                                                  
C39  36934351.172   192326860.480           3.686          45.000                                                                  
C13  37932421.989   197524073.580         589.852          39.000    37932410.873   152738100.948         456.073          35.000  
C32  25126573.124   130840655.895         983.947          29.000                                                                  
C41  24211490.762   126075543.585        -421.200          27.000                                                                  
C08  37695845.073   196292164.535         555.012          37.000    37695825.881   151785470.398         428.903          38.000  
R16  21921167.412   117098921.216        -746.076          47.000    21921165.535    91076945.900        -580.427          40.000  
R09  21731732.581   116046246.911        2721.503          48.000    21731730.895    90258208.427        2116.858          38.000  
R07  23033700.509                         717.444          26.000    23033704.245    95900956.1782        558.388          25.000  
R21  21951433.565   117466565.093       -3157.750          50.000    21951429.836    91362847.908       -2456.127          41.000  
R20  24506170.876                       -4435.870          23.000    24506209.245                       -3438.275          25.000  
E33  24707610.169   129839367.7251         58.395          33.000    24707623.304    99487355.043          44.581          37.000  
E26  25234736.177   132609431.442       -2477.546          41.000    25234735.934   101609821.143       -1898.258          38.000  
G25  24421802.402   128337558.211        2591.348          31.000    24421807.569                        2016.954          22.000  
S29  37805778.328   198670698.116        -303.669          43.000  
E29  25161431.907   132224212.332       -1067.930          41.000    25161431.788   101314656.187        -818.358          38.000  
E19  25455556.016   133769732.828         272.138          31.000    25455579.545   102499056.130         209.217          28.000  
C16  37544295.357   195502989.421         171.126          42.000    37544285.147   151175270.811         132.317          40.000  
C27  24761276.231   128938465.746       -2278.357          46.000                                                                  
C09  38444479.918   200190493.131         471.110          33.000    38444467.163   154799920.465         364.015          33.000  
C25  23903915.097   124473963.694       -1225.150          44.000                                                                  
C10  40758624.009   212240850.981       -1258.931          36.000    40758619.004                        -972.913          27.000  
R22  22630270.737   120801963.835         869.126          34.000    22630236.514                         672.744          21.000  
R06  22226138.224   118602932.2603       -327.013          27.000                                                                  
G15  23971140.063                       -2339.616          25.000                                                                  
G32  24474071.401   128612042.5062        924.116          30.000    24474042.261   100217111.688         720.146          25.000  
J02  38081204.005   200118062.811        -293.071          42.000    38081202.930   155936209.766        -228.029          35.000  
E21  28473759.224   149630614.3111       1839.286          26.000                                                                  
G12  24439276.439   128429266.211        1788.442          37.000    24439278.716   100074751.072        1393.363          35.000  
J07  37401208.390   196544673.300        -303.364          39.000    37401205.064   153151686.793        -236.589          42.000  
J03  36876688.420   193788299.717        -211.563          42.000    36876687.443   151003870.904        -165.263          28.000  
G10  24385517.818   128146768.3152       2495.810          29.000    24385507.130    99854574.7911       1944.893          26.000  
E12                                                                  28319090.841                        1682.760          12.000  
J04                                                                  40292658.398   164991700.174         116.172          45.000  
> 2025 10 27 01 31 53.0030000  0 38                     
G24  21713239.629   114103855.013       -2493.781          32.000    21713237.667    88912079.484       -1943.473          29.000  
S37  37401261.759   196544955.572        -303.424          43.000  
G18  21812462.298   114625258.482       -1961.578          44.000    21812460.460    89318350.014       -1528.088          40.000  
G23  21544872.352   113219062.765        1171.941          38.000    21544869.806    88222665.399         913.079          37.000  
S28  38224053.620   200868754.3972       -300.815          43.000  
C38  37166438.943   193535398.419         331.873          43.000                                                                  
C39  36934350.377   192326856.813           3.635          44.000                                                                  
C13  37932308.605   197523483.521         590.199          39.000    37932297.541   152737644.630         455.979          30.000  
C41  24211572.870   126075965.600        -422.023          27.000                                                                  
C08  37695738.541   196291609.520         554.214          36.000    37695719.374   151785041.273         429.151          37.000  
R16  21921307.037   117099667.543        -746.836          47.000    21921305.259    91077526.426        -581.093          41.000  
R09  21731222.910   116043525.372        2721.240          47.000    21731221.239    90256091.671        2116.949          38.000  
R07  23033569.996   123300502.6493        716.734          27.000    23033569.070                         560.319          22.000  
R21  21952023.715   117469723.107       -3158.134          50.000    21952019.963    91365304.118       -2456.452          42.000  
R20  24507000.772                       -4420.217          24.000    24507027.888   101927848.6223      -3438.335          32.000  
E33  24707614.391   129839309.349          58.242          33.000    24707612.094    99487310.215          44.834          39.000  
E26  25235207.455   132611908.994       -2477.631          41.000    25235207.456   101611719.538       -1898.055          39.000  
G25  24421309.990   128334967.513        2590.048          29.000    24421313.711                        2022.550          20.000  
S29  37805836.129   198671001.909        -303.756          45.000  
E29  25161635.034   132225280.079       -1067.974          41.000    25161634.840   101315474.237        -818.131          32.000  
E19  25455503.472   133769459.874         273.073          31.000    25455527.392   102498847.013         208.913          30.000  
C16  37544262.419   195502818.242         171.205          42.000    37544252.246   151175138.474         131.899          40.000  
C27  24761713.746   128940744.272       -2278.589          46.000                                                                  
C09  38444389.303   200190021.638         471.636          39.000    38444376.521   154799555.768         364.880          36.000  
C25  23904150.365   124475188.958       -1225.477          44.000                                                                  
C10  40758865.733   212242109.837       -1258.735          36.000    40758858.817   164119042.0823       -973.068          26.000  
R22  22630107.316   120801094.687         868.551          34.000    22630074.185                         676.734          19.000  
R06  22226200.033   118603258.5851       -326.410          27.000                                                                  
G15  23971583.087                       -2340.199          25.000                                                                  
G32  24473900.213   128611117.9902        924.033          34.000    24473866.690   100216391.305         720.396          26.000  
J02  38081259.309   200118355.922        -293.154          42.000    38081258.321   155936438.217        -228.218          35.000  
E21  28473411.861   149628775.405        1839.570          25.000                                                                  
G12  24438936.030   128427477.848        1788.190          39.000    24438938.241   100073357.526        1393.527          35.000  
J07  37401266.127   196544976.829        -303.397          39.000    37401262.837   153151923.310        -236.656          43.000  
J03  36876728.750   193788511.501        -211.557          40.000    36876727.665   151004035.942        -164.626          29.000  
G10  24385041.155   128144272.8332       2495.088          30.000    24385031.911    99852630.191        1943.709          27.000  
E12                                                                  28318674.308                        1682.760          13.000  
J04                                                                  40292630.031   164991584.016         116.185          43.000  
> 2025 10 27 01 31 54.0030000  0 38                     
G24  21713714.163   114106349.093       -2494.413          30.000    21713711.938    88914022.915       -1943.407          29.000  
S37  37401319.486   196545259.255        -303.839          43.000  
G18  21812835.618   114627220.345       -1962.360          44.000    21812833.834    89319878.733       -1529.205          42.000  
G23  21544649.238   113217890.921        1172.037          37.000    21544646.749    88221752.303         912.813          29.000  
S28  38224111.127   200869055.5802       -301.326          43.000  
C38  37166375.167   193535066.545         331.542          43.000                                                                  
C39  36934349.773   192326853.455           2.744          44.000                                                                  
C13  37932195.219   197522893.553         589.374          37.000    37932184.129   152737188.357         455.977          31.000  
C41  24211657.514   126076387.724        -422.452          27.000                                                                  
C08  37695632.015   196291054.752         554.546          37.000    37695612.959   151784612.321         429.172          35.000  
R16  21921446.981   117100414.923        -747.986          48.000    21921445.276    91078107.714        -581.673          41.000  
R09  21730713.390   116040804.498        2720.386          47.000    21730711.695    90253975.476        2115.759          40.000  
R07  23033436.757   123299785.1832        717.531          33.000    23033433.480                         559.112          22.000  
R21  21952613.933   117472881.764       -3159.233          50.000    21952610.176    91367760.841       -2457.253          43.000  
R20  24507829.853   131054379.1303      -4421.022          27.000    24507842.895   101931286.9542      -3439.115          31.000  
R10  24876610.339   132606331.5453       3882.696          27.000                                                                  
E33  24707609.356   129839251.519          58.117          32.000    24707601.359    99487265.889          43.671          40.000  
E26  25235679.123   132614387.048       -2478.392          42.000    25235679.268   101613618.288       -1899.028          39.000  
G25  24420816.743   128332376.777        2590.968          28.000    24420820.280                        2019.910          16.000  
S29  37805893.964   198671305.861        -304.177          46.000  
E29  25161837.994   132226347.947       -1067.856          39.000    25161838.008   101316292.404        -818.255          33.000  
E19  25455451.060   133769187.235         272.175          30.000    25455475.186   102498638.092         208.882          32.000  
C16  37544229.625   195502647.391         170.357          42.000    37544219.385   151175006.338         131.861          40.000  
C27  24762151.336   128943023.143       -2279.205          45.000                                                                  
C09  38444298.908   200189550.373         471.145          39.000    38444285.972   154799191.363         364.169          37.000  
C25  23904385.734   124476414.949       -1226.406          45.000                                                                  
C10  40759107.544   212243368.766       -1259.493          36.000    40759100.271   164120015.4292       -973.066          26.000  
R22  22629944.045   120800226.542         867.007          31.000    22629914.567                         665.613          16.000  
R06  22226261.071   118603585.600        -327.903          27.000                                                                  
G32  24473720.834   128610193.7862        923.734          37.000    24473689.051   100215671.129         720.046          32.000  
J02  38081314.827   200118649.188        -293.437          41.000    38081313.734   155936666.668        -228.954          33.000  
E21  28473064.930                        1841.597          23.000                                                                  
G12  24438595.790   128425689.870        1787.780          39.000    24438597.893   100071964.313        1393.286          35.000  
J07  37401323.952   196545280.535        -303.910          39.000    37401320.695   153152159.933        -236.735          43.000  
J03  36876769.117   193788723.575        -212.344          41.000    36876768.072   151004201.203        -165.578          31.000  
G10  24384562.063   128141777.4602       2495.423          28.000    24384556.924    99850685.763        1944.293          27.000  
E12                                                                  28318256.496                        1682.760          14.000  
J04                                                                  40292601.640   164991467.907         115.972          42.000  
> 2025 10 27 01 31 55.0030000  0 39                     
G24  21714188.623   114108843.701       -2494.775          29.000    21714186.489    88915966.823       -1944.198          28.000  
S37  37401377.314   196545563.007        -303.973          43.000  
G18  21813209.102   114629182.825       -1962.836          46.000    21813207.278    89321407.925       -1529.388          43.000  
G23  21544426.415   113216719.442        1171.117          32.000    21544423.248                         907.905          19.000  
S28  38224168.599   200869356.8002       -301.196          43.000  
C38  37166311.523   193534734.755         331.801          40.000                                                                  
C39  36934349.164   192326850.291           2.845          43.000                                                                  
C13  37932081.878   197522303.579         590.034          35.000    37932070.856   152736732.127         455.907          30.000  
C41  24211739.183                        -421.938          25.000                                                                  
C08  37695525.524   196290500.050         554.172          35.000    37695506.607   151784183.442         428.219          30.000  
R16  21921587.040   117101163.148        -748.589          48.000    21921585.311    91078689.645        -582.085          41.000  
R09  21730203.970   116038084.132        2719.885          47.000    21730202.342    90251859.613        2115.710          41.000  
R07  23033305.264   123299067.1391        717.623          33.000    23033296.280                         557.274          23.000  
R21  21953204.254   117476040.988       -3159.503          50.000    21953200.479    91370218.004       -2457.426          44.000  
R20  24508662.291   131058799.841       -4420.876          29.000    24508660.322   101934724.6831      -3437.994          31.000  
R10  24875877.607   132602449.270        3882.470          29.000                                                                  
E33  24707601.998   129839194.221          56.872          32.000    24707590.626    99487221.929          43.870          40.000  
E26  25236150.971   132616865.486       -2478.648          43.000    25236150.942   101615517.324       -1899.110          40.000  
G25  24420323.415                1       2589.442          26.000    24420325.408                        2025.064          16.000  
S29  37805951.677   198671609.843        -303.893          47.000  
E29  25162041.036   132227415.899       -1067.545          35.000    25162041.465   101317110.694        -818.111          32.000  
E19  25455396.991   133768914.830         272.346          29.000    25455423.023   102498429.288         208.801          32.000  
C16  37544196.871   195502476.714         170.442          43.000    37544186.636   151174874.358         131.808          40.000  
C27  24762589.037   128945302.247       -2279.407          45.000                                                                  
C09  38444208.559   200189079.290         470.956          40.000    38444195.486   154798827.061         364.437          39.000  
C25  23904621.388   124477641.479       -1226.810          45.000                                                                  
C10  40759349.273   212244627.535       -1258.733          35.000    40759340.068   164120988.8212       -973.655          29.000  
C33  26719979.212                       -1576.170          22.000                                                                  
R22  22629781.152   120799359.287         866.153          31.000    22629750.901                         686.346          15.000  
R06  22226323.552                1       -324.627          25.000                                                                  
G32  24473539.731   128609269.727         923.517          36.000    24473520.130   100214951.121         719.946          35.000  
J02  38081370.270   200118942.471        -292.851          41.000    38081369.287   155936895.162        -228.470          31.000  
E21  28472716.405                        1838.617          23.000                                                                  
G12  24438255.541   128423902.097        1787.769          39.000    24438257.712   100070571.287        1393.081          35.000  
J07  37401381.776   196545584.271        -303.802          39.000    37401378.527   153152396.601        -236.705          44.000  
J03  36876809.473   193788935.802        -212.257          41.000    36876808.489   151004366.536        -165.405          33.000  
G10  24384084.969   128139281.5481       2495.549          30.000    24384082.974                        1943.456          26.000  
E12                                                                  28317838.727                        1682.760          13.000  
J04                                                                  40292573.276   164991351.752         115.831          41.000  
> 2025 10 27 01 31 56.0030000  0 38                     
G24  21714663.138   114111338.753       -2494.952          30.000    21714661.240    88917910.987       -1944.279          28.000  
S37  37401435.118   196545866.699        -303.784          42.000  
G18  21813582.697   114631145.837       -1963.238          46.000    21813580.699    89322937.551       -1529.919          43.000  
G23  21544203.529   113215548.235        1169.645          27.000    21544200.460                         915.918          28.000  
S28  38224226.019   200869657.4553       -300.862          43.000  
C38  37166247.835   193534402.946         332.021          40.000                                                                  
C39  36934348.613   192326847.248           2.794          43.000                                                                  
C13  37931968.000   197521710.5553        589.906          31.000    37931957.647   152736275.896         454.632          29.000  
C41  24211822.782                        -421.724          25.000                                                                  
C08  37695418.968   196289945.315         554.458          32.000    37695400.177   151783754.369         429.776          31.000  
R16  21921727.281   117101912.096        -749.326          47.000    21921725.397    91079272.198        -582.890          40.000  
R09  21729694.660   116035364.146        2719.739          47.000    21729692.952    90249744.061        2115.674          41.000  
R07  23033172.058   123298349.417         717.722          35.000    23033159.323    95898681.5873        558.460          31.000  
R21  21953794.728   117479200.697       -3160.080          50.000    21953790.887    91372675.538       -2457.851          44.000  
R20  24509493.772   131063220.311       -4419.870          30.000    24509482.628   101938162.871       -3438.266          31.000  
R10  24875146.392   132598566.809        3882.684          29.000                                                                  
E33  24707584.000   129839137.232          56.068          32.000    24707579.836    99487178.307          43.429          40.000  
E26  25236622.452   132619344.189       -2478.996          43.000    25236622.796   101617416.598       -1899.275          40.000  
S29  37806009.493   198671913.770        -303.850          47.000  
E29  25162244.070   132228483.839       -1067.803          34.000    25162245.069   101317928.955        -818.610          26.000  
E19  25455342.041   133768642.476         272.184          29.000    25455371.004   102498220.637         208.418          31.000  
C16  37544164.197   195502306.186         170.033          41.000    37544153.821   151174742.484         131.820          40.000  
C27  24763026.821   128947581.509       -2279.541          44.000                                                                  
C09  38444118.246   200188608.226         471.158          39.000    38444105.007   154798462.859         363.726          39.000  
C25  23904857.038   124478868.398       -1227.103          43.000                                                                  
C10  40759591.126   212245886.195       -1258.735          33.000    40759581.698   164121962.0772       -972.587          30.000  
R22  22629618.282   120798492.906         865.791          26.000    22629586.423                         673.800          13.000  
R06  22226384.934                        -327.098          24.000                                                                  
G32  24473363.671   128608345.752         924.123          36.000    24473344.808   100214231.038         720.409          35.000  
J02  38081425.779   200119235.689        -293.416          41.000    38081425.447   155937123.650        -228.307          34.000  
E21  28472364.690                        1837.749          23.000                                                                  
G12  24437915.371   128422114.431        1787.640          39.000    24437917.429   100069178.309        1393.210          34.000  
J07  37401439.599   196545887.978        -303.650          39.000    37401436.331   153152633.249        -236.825          44.000  
J03  36876849.916   193789148.081        -211.647          40.000    36876849.080   151004531.947        -165.338          34.000  
G10  24383612.010   128136785.939        2495.459          32.000    24383608.033    99846798.5441       1945.199          27.000  
E12                                                                  28317420.779                        1682.760          13.000  
G25                                                                  24419829.845                        2021.582          19.000  
J04                                                                  40292544.878   164991235.473         116.200          40.000  
> 2025 10 27 01 31 57.0030000  0 37                     
G24  21715138.011   114113834.330       -2495.636          30.000    21715136.068    88919855.610       -1944.497          28.000  
S37  37401492.961   196546170.336        -303.528          44.000  
G18  21813956.336   114633109.450       -1963.910          44.000    21813954.435    89324467.610       -1530.292          42.000  
G23  21543979.993   113214378.3743       1170.082          31.000    21543977.556    88218986.4381        912.875          34.000  
S28  38224283.329   200869958.5692       -301.126          44.000  
C38  37166184.043   193534071.140         331.961          44.000                                                                  
C39  36934348.057   192326844.331           2.683          46.000                                                                  
C13  37931854.407   197521120.539         590.461          30.000    37931842.957                         459.725          18.000  
C41  24211902.395                        -423.781          24.000                                                                  
C08  37695312.388   196289390.489         554.823          39.000    37695293.563   151783325.410         428.851          36.000  
R16  21921867.585   117102661.897        -750.468          45.000    21921865.789    91079855.301        -584.306          33.000  
R09  21729185.311   116032644.600        2719.403          48.000    21729183.620    90247628.865        2115.076          40.000  
R07  23033034.937                1        719.699          26.000    23033028.496                         561.981          29.000  
R21  21954385.212   117482360.836       -3160.254          50.000    21954381.417    91375133.414       -2458.023          42.000  
R20  24510319.519   131067640.610       -4419.943          31.000    24510304.220   101941600.827       -3437.179          30.000  
R10  24874415.405   132594684.075        3882.867          31.000                                                                  
E33  24707557.470   129839080.490          56.723          35.000    24707568.951    99487135.030          43.275          40.000  
E26  25237094.556   132621823.168       -2479.252          41.000    25237094.463   101619316.057       -1899.566          39.000  
G25  24419334.657                        2590.225          25.000    24419337.109                        2027.165          19.000  
S29  37806067.279   198672217.630        -303.570          45.000  
E29  25162447.189   132229551.815       -1067.768          33.000    25162449.772                        -816.467          24.000  
E19  25455287.846   133768370.042         273.212          29.000    25455319.289   102498011.894         209.673          31.000  
C16  37544131.450   195502135.782         170.105          44.000    37544121.135   151174610.715         131.540          40.000  
C27  24763464.660   128949860.873       -2279.175          47.000                                                                  
C09  38444028.033   200188137.331         470.680          38.000    38444014.575   154798098.734         363.625          38.000  
C25  23905092.652   124480095.849       -1227.889          42.000                                                                  
C10  40759832.833   212247144.716       -1258.911          34.000    40759824.812   164122935.341        -972.897          30.000  
R22  22629455.290   120797627.0932        865.085          37.000    22629425.206                         671.721          23.000  
R06  22226447.025                        -326.295          25.000                                                                  
G32  24473188.222   128607421.782         924.140          42.000    24473169.652                         716.126          28.000  
J02  38081481.271   200119528.920        -293.862          40.000    38081481.454   155937352.110        -228.558          38.000  
E21  28472014.659                        1846.292          21.000                                                                  
G12  24437575.242   128420327.013        1787.847          37.000    24437577.166   100067785.489        1392.581          34.000  
J07  37401497.339   196546191.610        -303.390          39.000    37401494.098   153152869.837        -236.472          44.000  
J03  36876890.363   193789360.406        -212.123          40.000    36876889.466   151004697.340        -165.391          35.000  
G10  24383137.576   128134290.030        2496.617          31.000    24383131.723    99844853.764        1943.891          32.000  
J04                                                                  40292516.407   164991119.080         116.541          42.000  
> 2025 10 27 01 31 58.0030000  0 38                     
G24  21715613.119   114116330.447       -2496.063          31.000    21715611.034    88921800.633       -1945.489          28.000  
S37  37401550.657   196546474.091        -303.510          46.000  
G18  21814330.187   114635073.880       -1964.532          38.000    21814328.318    89325998.369       -1530.768          39.000  
G23  21543757.552   113213209.1912       1170.408          25.000    21543755.241    88218074.379         911.647          30.000  
S28  38224340.719   200870259.712        -301.437          31.000  
C38  37166120.019   193533739.474         331.876          42.000                                                                  
C39  36934347.161   192326841.669           2.888          42.000                                                                  
C13  37931739.994   197520530.400         589.886          30.000    37931729.401                         457.629          18.000  
C32  25125438.349   130834750.7003        983.151          30.000                                                                  
C41  24211981.985                        -423.527          25.000                                                                  
C08  37695205.691   196288835.788         555.021          35.000    37695187.221   151782896.428         429.209          33.000  
R16  21922008.095   117103412.609        -750.848          46.000    21922006.338    91080439.121        -584.120          32.000  
R09  21728676.234   116029925.628        2718.774          48.000    21728674.461    90245514.144        2114.752          40.000  
R07  23032900.768   123296920.7333        718.786          26.000    23032890.849    95897564.0023        558.239          32.000  
R21  21954975.810   117485521.725       -3160.844          38.000    21954972.179    91377591.947       -2458.849          33.000  
R20  24511148.572                       -4417.611          29.000    24511129.253                1      -3434.269          22.000  
R10  24873687.940   132590801.309        3882.837          24.000                                                                  
E33  24707549.837   129839024.413          55.787          31.000    24707558.264    99487092.142          42.836          39.000  
E26  25237566.346   132624302.438       -2479.369          44.000    25237566.284   101621215.699       -1899.844          42.000  
G25  24418837.094   128321854.8583       2591.028          27.000    24418845.491    99991089.7631       2019.125          26.000  
S29  37806125.185   198672521.827        -303.348          32.000  
E29  25162649.985   132230619.842       -1068.921          31.000    25162653.855                        -814.510          23.000  
E19  25455235.175   133768097.944         272.734          28.000    25455267.590   102497803.432         208.055          23.000  
C16  37544098.681   195501965.654         170.320          40.000    37544088.438   151174479.126         131.878          38.000  
C27  24763902.396   128952140.742       -2279.858          22.000                                                                  
C09  38443937.706   200187666.622         470.940          35.000    38443924.247   154797734.735         363.910          36.000  
C25  23905328.207   124481323.924       -1228.222          40.000                                                                  
C10  40760072.419                       -1256.487          24.000    40760064.530   164123908.488        -973.427          29.000  
R22  22629292.600   120796762.1762        865.025          34.000    22629264.728    93952873.3833        672.119          26.000  
R06  22226507.039                        -326.691          26.000                                                                  
G32  24473012.254   128606498.039         923.679          38.000    24472993.477   100212816.3541        719.599          33.000  
J02  38081536.797   200119822.055        -293.202          40.000    38081536.934   155937580.683        -228.663          38.000  
E21  28471662.260                        1844.520          21.000                                                                  
G12  24437235.117   128418539.808        1787.362          39.000    24437236.449   100066397.7681       1392.240          28.000  
J07  37401555.065   196546495.369        -303.619          41.000    37401551.857   153153106.489        -236.392          45.000  
J03  36876930.790   193789572.981        -212.351          46.000    36876929.807   151004863.004        -165.616          43.000  
G10  24382664.404   128131766.0773       2496.650          32.000    24382657.948    99842909.263        1944.713          31.000  
J04                                                                  40292488.153   164991002.674         116.407          42.000  
> 2025 10 27 01 31 59.0030000  0 38                     
G24  21716088.219   114118826.981       -2496.881          32.000    21716086.074    88923745.999       -1944.963          27.000  
S37  37401608.405   196546777.772        -304.047          43.000  
G18  21814704.114   114637038.658       -1964.618          35.000    21814702.216    89327529.382       -1531.281          39.000  
G23  21543533.482                        1173.899          21.000    21543534.501    88217162.366         911.074          31.000  
S28  38224398.236   200870560.938        -300.650          35.000  
C38  37166056.202   193533407.779         331.495          44.000                                                                  
C39  36934346.530   192326839.029           2.410          44.000                                                                  
C13  37931628.022   197519940.503         588.636          30.000    37931618.704                         459.451          22.000  
C32  25125250.065   130833766.7072        984.101          30.000                                                                  
C41  24212061.781                        -422.770          24.000                                                                  
C08  37695099.237   196288280.964         555.186          39.000    37695080.810   151782467.513         428.498          36.000  
R16  21922148.713   117104164.154        -752.173          47.000    21922147.059    91081023.710        -585.974          32.000  
R09  21728167.221   116027207.073        2718.213          47.000    21728165.402    90243399.716        2114.447          37.000  
R07  23032767.427   123296206.9582        718.289          26.000    23032757.768    95897009.6212        558.328          28.000  
R21  21955566.538   117488682.868       -3160.998          38.000    21955562.938    91380050.616       -2459.145          32.000  
R20  24511982.260   131076584.7753      -4420.909          29.000    24511960.593                       -3432.167          20.000  
R10  24872960.169   132586918.369        3883.435          25.000                                                                  
E33  24707539.663   129838969.145          53.617          30.000    24707547.765    99487049.598          42.787          38.000  
E26  25238037.815   132626782.141       -2479.728          41.000    25238038.197   101623115.714       -1900.327          40.000  
S29  37806183.070   198672825.621        -304.663          30.000  
E29  25162852.505   132231688.084       -1068.673          33.000    25162853.948                        -818.522          30.000  
E19  25455183.770                         272.524          27.000    25455215.574   102497594.957         208.458          25.000  
C16  37544065.975   195501795.541         169.677          39.000    37544055.809   151174347.696         131.459          35.000  
C09  38443847.403   200187196.001         470.734          36.000    38443833.901   154797370.877         363.367          35.000  
C25  23905563.929   124482552.418       -1229.113          45.000                                                                  
C10  40760315.321   212249657.8843      -1259.345          33.000    40760306.072   164124881.151        -972.536          27.000  
R22  22629129.985   120795898.185         862.816          36.000    22629101.553    93952201.148         672.513          25.000  
R06  22226567.307   118605221.8053       -326.698          26.000                                                                  
G15  23973690.464                       -2304.883          25.000                                                                  
G32  24472836.269   128605574.421         923.227          38.000    24472817.291   100212096.535         719.187          29.000  
J02  38081593.152   200120122.6823       -299.518          27.000    38081592.219   155937809.040        -228.053          38.000  
E21  28471309.987                        1834.311          20.000                                                                  
G12  24436894.981   128416752.558        1787.613          37.000    24436895.810   100065005.519        1391.662          29.000  
J07  37401612.887   196546799.035        -304.025          40.000    37401609.537   153153343.172        -236.567          40.000  
J03  36876971.266   193789785.660        -212.645          43.000    36876970.296   151005028.753        -165.581          42.000  
G10  24382188.233   128129270.4092       2495.647          31.000    24382181.329    99840964.487        1945.433          30.000  
G25                                                                  24418351.159                        2019.837          26.000  
J04                                                                  40292459.799   164990886.220         116.013          44.000  
> 2025 10 27 01 32 00.0030000  0 38                     
G24  21716563.787   114121324.094       -2496.993          31.000    21716561.263    88925691.852       -1946.916          26.000  
S37  37401666.159   196547081.448        -303.748          44.000  
G18  21815078.065   114639003.958       -1965.576          37.000    21815076.150    89329060.798       -1531.769          39.000  
G23  21543309.550                        1171.069          25.000    21543312.401                         906.911          24.000  
S28  38224455.850   200870862.106        -300.779          35.000  
C38  37165992.449   193533076.117         331.518          39.000                                                                  
C39  36934346.039   192326836.645           2.075          42.000                                                                  
C13  37931515.328   197519350.260         590.510          29.000    37931506.377   152734457.6893        456.549          31.000  
C32  25125062.614                         976.679          23.000                                                                  
C41  24212143.361   126078984.1453       -421.676          25.000                                                                  
C08  37694992.776   196287726.118         554.498          29.000    37694974.367   151782038.619         428.474          27.000  
R16  21922289.607   117104916.494        -752.856          47.000    21922287.813    91081608.895        -585.224          40.000  
R09  21727658.179   116024488.935        2717.688          49.000    21727656.363    90241285.607        2113.824          42.000  
R07  23032635.548   123295489.0492        717.081          27.000    23032624.246    95896451.2392        558.367          28.000  
R21  21956157.368   117491844.687       -3161.720          36.000    21956153.747    91382509.845       -2459.903          33.000  
R20  24512819.218   131081004.6262      -4419.937          29.000    24512790.751                       -3442.229          18.000  
R10  24872230.090   132583034.288        3889.539          24.000                                                                  
E26  25238509.551   132629262.086       -2480.363          45.000    25238509.985   101625015.930       -1900.416          41.000  
G25  24417851.835   128316677.1263       2590.738          26.000    24417860.113    99987055.1131       2018.434          29.000  
S29  37806240.752   198673129.590        -304.453          32.000  
E29  25163056.353   132232756.131       -1067.524          32.000    25163057.041   101321203.4631       -818.327          29.000  
E19  25455129.911                         271.172          26.000    25455163.582   102497386.494         208.783          27.000  
C16  37544033.336   195501625.596         170.010          38.000    37544023.196   151174216.222         131.947          35.000  
C27  24764776.999   128956692.4323      -2279.956          27.000                                                                  
C09  38443757.064   200186725.492         470.270          38.000    38443743.564   154797007.022         363.879          36.000  
C25  23905799.963   124483781.427       -1229.371          45.000                                                                  
C10  40760555.253   212250915.8972      -1257.726          27.000    40760548.685                        -971.507          26.000  
R22  22628966.330                         862.417          28.000    22628941.317    93951529.926         671.108          26.000  
R06  22226628.251                        -328.189          23.000                                                                  
G32  24472660.429   128604650.940         923.326          38.000    24472647.418   100211377.051         719.853          38.000  
J02  38081672.460   200120539.1502       -293.559          36.000    38081647.348   155938037.553        -228.259          39.000  
E21  28470960.493                        1837.062          20.000                                                                  
G12  24436554.933   128414965.682        1786.854          41.000    24436550.565   100063612.820        1391.896          30.000  
J07  37401670.728   196547102.731        -304.016          41.000    37401667.275   153153579.788        -236.624          44.000  
J03  36877011.657   193789998.346        -212.947          46.000    36877010.737   151005194.477        -165.943          44.000  
G10  24381712.598   128126774.7512       2495.395          31.000    24381706.651    99839019.905        1945.069          29.000  
E33                                                                  24707537.329    99487007.441          41.910          36.000  
J04                                                                  40292431.454   164990769.636         116.488          42.000  
> 2025 10 27 01 32 01.0030000  0 39                     
G24  21717039.252   114123821.622       -2497.799          29.000    21717036.780    88927637.821       -1945.463          25.000  
S37  37401723.928   196547385.123        -303.363          43.000  
G18  21815452.254   114640969.902       -1965.649          37.000    21815450.207    89330592.711       -1532.221          39.000  
G23  21543090.010   113209701.8123       1169.163          28.000    21543090.973                         912.536          25.000  
S28  38224513.223   200871163.137        -300.398          38.000  
C38  37165928.777   193532744.441         332.044          38.000                                                                  
C39  36934345.615   192326834.354           2.766          42.000                                                                  
C13  37931402.583   197518760.227         589.299          30.000    37931393.953   152734001.4332        456.355          33.000  
C32  25124876.136   130831822.6983        983.706          31.000                                                                  
C41  24212224.254   126079406.5292       -422.017          26.000                                                                  
C08  37694886.117   196287171.347         554.547          28.000    37694867.817   151781609.437         429.450          26.000  
R16  21922430.649   117105669.661        -753.216          47.000    21922428.844    91082194.708        -585.747          40.000  
R09  21727149.253   116021771.238        2717.737          49.000    21727147.233    90239171.840        2113.989          41.000  
R07  23032504.454   123294770.971         718.118          33.000    23032490.212    95895892.852         558.480          28.000  
R21  21956748.285   117495006.949       -3162.068          35.000    21956744.602    91384969.293       -2459.131          33.000  
R20  24513649.134   131085424.0341      -4419.345          29.000    24513619.809                       -3443.471          17.000  
R10  24871503.578                        3883.212          23.000                                                                  
E26  25238982.000   132631742.354       -2480.172          45.000    25238982.003   101626916.389       -1900.295          41.000  
G25  24417358.718   128314086.1992       2590.824          29.000    24417372.244    99985036.185        2018.409          30.000  
S29  37806298.457   198673433.456        -303.574          33.000  
E29  25163260.170   132233824.262       -1068.056          36.000    25163260.705   101322021.965        -817.967          34.000  
E19  25455075.105                         273.786          24.000    25455111.691   102497178.300         208.136          28.000  
C16  37544000.737   195501455.851         169.968          38.000    37543990.507   151174084.981         131.127          34.000  
C27  24765217.569   128958972.8122      -2281.110          27.000                                                                  
C09  38443666.819   200186255.087         470.480          38.000    38443653.252   154796643.235         364.202          36.000  
C25  23906036.077   124485010.917       -1229.544          46.000                                                                  
C10  40760796.153   212252174.0022      -1257.372          27.000    40760791.794                        -973.852          25.000  
R22  22628799.321                         862.608          27.000    22628781.362    93950865.9553        670.895          27.000  
R06  22226688.126                        -305.817          19.000                                                                  
G15  23975068.913                       -2335.017          25.000                                                                  
G32  24472484.558   128603727.372         923.661          35.000    24472475.901   100210657.470         719.850          38.000  
J02  38081745.723   200120832.163        -292.722          31.000    38081702.456   155938265.912        -227.968          39.000  
E21  28470613.489                        1843.178          20.000                                                                  
G12  24436214.995   128413178.919        1786.845          41.000    24436206.677   100062220.505        1392.733          29.000  
J07  37401728.505   196547406.397        -303.110          40.000    37401725.067   153153816.430        -236.500          43.000  
J03  36877052.062   193790211.157        -212.586          46.000    36877051.213   151005360.303        -165.709          43.000  
G10  24381235.907   128124278.6121       2495.843          32.000    24381231.486    99837075.270        1945.285          29.000  
E33                                                                  24707526.957    99486965.652          41.773          33.000  
J04                                                                  40292402.963   164990652.940         117.137          40.000  
> 2025 10 27 01 32 02.0030000  0 39                     
G24  21717514.502   114126319.627       -2498.480          29.000    21717512.111    88929584.285       -1946.365          25.000  
S37  37401781.761   196547688.796        -303.796          43.000  
G18  21815826.548   114642936.401       -1966.589          35.000    21815824.402    89332125.009       -1532.635          38.000  
G23  21542866.395   113208532.3422       1169.572          32.000    21542866.800    88214437.3521        911.499          30.000  
S28  38224570.771   200871464.280        -301.380          40.000  
C38  37165865.065   193532412.882         331.214          41.000                                                                  
C39  36934345.330   192326832.277           1.876          42.000                                                                  
C13  37931288.182   197518170.059         590.140          34.000    37931277.026   152733545.0852        455.469          33.000  
C32  25124685.268   130830838.5452        984.423          32.000                                                                  
C41  24212305.269   126079828.8562       -422.627          28.000                                                                  
C08  37694779.521   196286616.517         554.493          32.000    37694761.196   151781180.404         428.997          30.000  
R16  21922571.805   117106423.651        -754.622          48.000    21922569.988    91082781.149        -586.928          39.000  
R09  21726640.452   116019054.065        2716.760          49.000    21726638.412    90237058.466        2112.988          41.000  
R07  23032369.136   123294052.990         717.885          27.000    23032357.014    95895334.378         557.560          28.000  
R21  21957339.444   117498169.655       -3162.951          38.000    21957335.490    91387429.184       -2459.613          32.000  
R20  24514477.972   131089843.795       -4420.273          28.000    24514449.868                       -3435.958          16.000  
R10  24870776.660                        3885.042          24.000                                                                  
E33  24707541.030   129839004.0031         53.476          28.000    24707516.854    99486924.192          41.160          38.000  
E26  25239454.015   132634222.946       -2480.803          43.000    25239453.960   101628817.100       -1900.612          39.000  
G25  24416863.719   128311495.2572       2591.060          28.000    24416881.665    99983017.206        2018.642          32.000  
S29  37806356.213   198673737.283        -304.081          34.000  
E29  25163463.896   132234892.424       -1068.339          36.000    25163464.586   101322840.372        -818.536          34.000  
E19  25455015.389                         272.136          26.000    25455059.888   102496970.130         207.402          29.000  
C16  37543968.090   195501286.232         169.311          39.000    37543957.827   151173953.833         131.498          35.000  
C27  24765656.615   128961253.2382      -2280.756          33.000                                                                  
C09  38443576.580   200185784.773         470.034          38.000    38443563.003   154796279.607         363.636          36.000  
C25  23906272.255   124486240.911       -1230.375          46.000                                                                  
C10  40761043.268   212253431.9872      -1257.808          28.000    40761037.732                        -973.163          25.000  
R22  22628630.802   120793167.1853        861.406          33.000    22628622.616    93950195.6342        669.852          27.000  
R06  22226749.483                        -323.307          15.000                                                                  
G15  23975521.941                       -2335.017          23.000                                                                  
G32  24472308.625   128602804.045         923.516          33.000    24472300.502   100209937.960         719.441          37.000  
J02  38081799.847   200121125.070        -292.808          30.000    38081757.681   155938494.260        -228.777          40.000  
E21  28470262.349                        1835.796          19.000                                                                  
G12  24435875.033   128411392.328        1786.339          41.000    24435868.194   100060828.361        1393.065          30.000  
J07  37401786.300   196547710.068        -303.932          40.000    37401782.706   153154053.048        -236.587          44.000  
J03  36877092.563   193790424.105        -213.087          46.000    36877091.771   151005526.198        -165.860          44.000  
G10  24380759.986   128121782.688        2495.673          31.000    24380759.959    99835130.366        1943.990          27.000  
J04                                                                  40292374.462   164990536.180         116.681          40.000  
> 2025 10 27 01 32 03.0030000  0 38                     
G24  21717990.075   114128818.090       -2499.847          30.000    21717987.636    88931531.218       -1947.332          26.000  
S37  37401839.593   196547992.449        -303.912          44.000  
G18  21816200.695   114644903.445       -1967.761          35.000    21816198.713    89333657.790       -1532.935          39.000  
G23  21542643.231   113207363.0402       1169.373          33.000    21542643.302    88213526.338         911.366          29.000  
S28  38224628.174   200871765.416        -300.425          40.000  
C38  37165801.363   193532081.304         331.397          41.000                                                                  
C39  36934344.976   192326830.282           1.957          42.000                                                                  
C13  37931174.859   197517579.827         590.187          35.000    37931164.285   152733088.612         457.150          33.000  
C32  25124496.940   130829853.7451        984.718          30.000                                                                  
C41  24212384.549   126080251.249        -422.593          28.000                                                                  
C08  37694673.016   196286061.761         555.048          32.000    37694654.561   151780751.464         429.138          30.000  
R16  21922713.053   117107178.472        -755.313          49.000    21922711.340    91083368.231        -587.546          39.000  
R09  21726131.675   116016337.294        2716.522          49.000    21726129.629    90234945.408        2113.190          42.000  
R07  23032234.503   123293353.6363        718.502          25.000    23032223.509    95894775.712         558.524          28.000  
R21  21957930.578   117501332.916       -3163.474          38.000    21957926.597    91389889.516       -2460.330          32.000  
R20  24515305.150   131094263.365       -4419.090          27.000    24515279.974                       -3434.938          15.000  
R10  24870048.662                        3881.776          24.000                                                                  
E33  24707539.819   129838950.427          53.091          29.000    24707506.623    99486883.097          40.773          38.000  
E26  25239926.378   132636703.830       -2481.124          43.000    25239926.010   101630718.044       -1900.998          38.000  
G25  24416368.808   128308904.1892       2591.041          28.000    24416392.183    99980998.197        2018.957          32.000  
S29  37806413.812   198674041.198        -303.449          32.000  
E29  25163667.301   132235960.540       -1067.956          37.000    25163667.725   101323658.799        -818.018          35.000  
E19  25454954.452   133766688.3571        271.262          28.000    25455007.686   102496761.982         208.581          28.000  
C16  37543935.444   195501116.720         169.304          39.000    37543925.144   151173822.714         131.601          35.000  
C27  24766093.748   128963533.890       -2280.951          32.000                                                                  
C09  38443486.332   200185314.599         469.932          39.000    38443472.702   154795916.041         363.506          36.000  
C25  23906508.584   124487471.400       -1230.635          47.000                                                                  
C10  40761285.506   212254689.1931      -1258.326          28.000    40761278.320                        -972.708          25.000  
R22  22628465.558   120792285.0972        860.516          33.000    22628462.117    93949526.010         668.778          25.000  
R06  22226809.771                        -326.712          17.000                                                                  
E27  27871810.098                        1256.934          23.000                                                                  
G32  24472132.528   128601880.702         922.740          35.000    24472127.119   100209269.5191        719.331          37.000  
J02  38081840.813   200121423.7173       -291.607          29.000    38081812.818   155938722.610        -228.319          40.000  
G12  24435535.162   128409605.944        1786.234          40.000    24435529.195   100059406.4161       1391.366          31.000  
J07  37401844.184   196548013.726        -303.761          40.000    37401840.572   153154289.657        -236.479          42.000  
J03  36877133.102   193790637.125        -213.037          46.000    36877132.310   151005692.193        -166.022          44.000  
G10  24380286.586   128119286.807        2496.151          33.000    24380286.573    99833185.568        1944.235          27.000  
J04                                                                  40292345.904   164990419.352         117.061          40.000  
> 2025 10 27 01 32 04.0030000  0 37                     
G24  21718465.549   114131317.051       -2499.258          29.000    21718463.263    88933478.496       -1947.510          25.000  
S37  37401897.401   196548296.127        -303.455          44.000  
G18  21816575.057   114646871.077       -1968.152          35.000    21816573.191    89335191.038       -1533.527          39.000  
G23  21542420.541   113206194.1582       1169.077          33.000    21542424.906    88212615.581         909.879          27.000  
S28  38224685.518   200872066.598        -301.329          39.000  
C38  37165737.758   193531749.795         331.302          41.000                                                                  
C39  36934344.655   192326828.468           2.015          41.000                                                                  
C13  37931061.663   197516989.600         590.317          36.000    37931051.846   152732632.265         456.794          32.000  
C32  25124306.730   130828869.521         983.799          27.000                                                                  
C41  24212464.987   126080673.651        -422.355          28.000                                                                  
C08  37694566.505   196285507.014         554.428          30.000    37694548.018   151780322.411         429.677          28.000  
R16  21922854.481   117107934.170        -756.083          49.000    21922852.765    91083956.001        -587.982          40.000  
R09  21725622.926   116013621.023        2715.997          49.000    21725621.029    90232832.782        2112.292          42.000  
R07  23032101.398   123292635.3602        718.133          26.000    23032089.476    95894217.094         559.032          28.000  
R21  21958521.848   117504496.725       -3164.209          37.000    21958517.834    91392350.210       -2460.533          32.000  
R20  24516129.850   131098682.940       -4419.146          28.000    24516110.500                       -3434.606          17.000  
E33  24707526.246   129838897.298          53.109          30.000    24707496.470    99486842.387          40.624          36.000  
E26  25240398.551   132639185.101       -2481.304          44.000    25240398.177   101632619.287       -1901.345          39.000  
G25  24415876.223   128306313.1362       2590.955          29.000    24415900.006    99978979.263        2018.167          32.000  
S29  37806471.468   198674345.189        -303.907          34.000  
E29  25163870.781   132237028.771       -1068.119          38.000    25163870.897   101324477.321        -818.327          33.000  
E19  25454907.026   133766417.015         271.511          28.000    25454955.586   102496554.068         207.988          29.000  
C16  37543903.003   195500947.421         168.838          38.000    37543892.528   151173691.859         130.189          35.000  
C27  24766532.984   128965814.696       -2280.316          31.000                                                                  
C09  38443396.035   200184844.552         470.047          38.000    38443382.483   154795552.565         363.420          36.000  
C25  23906745.061   124488702.442       -1231.387          47.000                                                                  
C10  40761526.888   212255946.770       -1257.512          27.000    40761521.606                        -972.423          26.000  
R22  22628299.246   120791424.8762        860.241          32.000    22628301.755                         666.109          23.000  
R06  22226871.638                        -324.451          15.000                                                                  
E27  27871575.041                        1247.693          25.000                                                                  
G32  24471956.418   128600957.635         923.115          35.000    24471951.589   100208550.242         719.053          38.000  
J02  38081902.442                        -304.114          28.000    38081868.047   155938950.950        -228.136          38.000  
G12  24435195.349   128407819.746        1786.509          40.000    24435188.596   100058014.609        1391.574          31.000  
J07  37401901.998   196548317.394        -303.715          40.000    37401898.481   153154526.309        -236.615          43.000  
J03  36877173.763   193790850.308        -213.328          46.000    36877172.932   151005858.336        -166.216          44.000  
G10  24379812.087   128116790.837        2496.360          32.000    24379812.572    99831240.783        1944.432          26.000  
J04                                                                  40292317.379   164990302.489         117.000          41.000  
> 2025 10 27 01 32 05.0030000  0 38                     
G24  21718941.092   114133816.563       -2499.552          29.000    21718938.738    88935426.211       -1947.979          24.000  
S37  37401955.131   196548599.830        -303.864          44.000  
G18  21816949.598   114648839.317       -1968.805          36.000    21816947.723    89336724.729       -1533.838          39.000  
G23  21542198.240   113205025.5512       1168.079          33.000    21542209.476    88211704.994         909.946          26.000  
S28  38224742.793   200872367.729        -301.498          38.000  
C38  37165674.091   193531418.370         331.274          41.000                                                                  
C39  36934344.340   192326826.873           1.276          41.000                                                                  
C13  37930948.306   197516399.349         590.375          36.000    37930938.836   152732175.877         455.461          32.000  
C32  25124117.450   130827885.149         984.408          27.000                                                                  
C41  24212545.981   126081096.126        -422.333          28.000                                                                  
C08  37694459.970   196284952.232         554.560          30.000    37694441.396   151779893.519         429.100          28.000  
R16  21922996.095   117108690.732        -757.081          49.000    21922994.256    91084544.431        -588.883          40.000  
R09  21725114.328   116010905.246        2715.326          48.000    21725112.474    90230720.503        2111.993          43.000  
R07  23031967.589   123291917.004         718.042          33.000    23031955.721    95893658.457         558.409          28.000  
R21  21959113.230   117507661.079       -3164.922          36.000    21959109.213    91394811.379       -2461.970          32.000  
R20  24516956.306   131103102.479       -4419.285          29.000    24516943.681                       -3436.708          19.000  
E33  24707509.462   129838844.745          51.549          31.000    24707486.424    99486802.037          40.292          36.000  
E26  25240870.878   132641666.699       -2481.890          44.000    25240870.408   101634520.746       -1901.434          39.000  
S29  37806529.144   198674649.145        -304.023          34.000  
E29  25164074.228   132238097.040       -1068.210          38.000    25164074.277   101325295.880        -818.817          33.000  
E19  25454861.020   133766145.748         271.431          28.000    25454903.705   102496346.146         207.983          29.000  
C16  37543870.441   195500778.277         168.774          38.000    37543860.026   151173561.048         130.330          34.000  
C27  24766970.945   128968095.815       -2281.128          32.000                                                                  
C09  38443305.931   200184374.668         469.526          39.000    38443292.258   154795189.227         362.876          36.000  
C25  23906981.566   124489933.973       -1231.917          47.000                                                                  
C10  40761768.699   212257204.353       -1257.748          27.000    40761764.741                        -972.801          27.000  
R22  22628136.797   120790565.375         859.619          31.000    22628140.932                         666.742          21.000  
R06  22226933.160                        -293.201          14.000                                                                  
E27  27871339.425                        1247.456          25.000                                                                  
G15  23976882.283                       -2335.017          22.000                                                                  
G32  24471780.193   128600034.584         922.817          36.000    24471775.659   100207831.003         719.277          38.000  
J02  38081935.409   200121921.0113       -293.299          27.000    38081923.386   155939179.344        -228.568          38.000  
G12  24434855.561   128406033.815        1785.734          40.000    24434849.276   100056622.980        1391.439          31.000  
J07  37401959.763   196548621.092        -303.639          40.000    37401956.240   153154762.971        -237.045          43.000  
J03  36877214.342   193791063.598        -213.480          46.000    36877213.363   151006024.527        -166.313          44.000  
G10  24379337.177   128114294.915        2495.908          33.000    24379339.421    99829295.769        1945.682          26.000  
G25                                                                  24415408.489    99976960.203        2019.680          31.000  
J04                                                                  40292288.862   164990185.548         116.896          41.000  
> 2025 10 27 01 32 06.0030000  0 39                     
G24  21719416.624   114136316.508       -2500.207          28.000    21719414.400    88937374.312       -1948.659          23.000  
S37  37402012.938   196548903.530        -304.004          44.000  
G18  21817324.182   114650808.205       -1969.122          36.000    21817322.283    89338258.905       -1534.656          39.000  
G23  21541976.348   113203857.2892       1167.851          33.000    21541987.722    88210794.597         910.186          28.000  
S28  38224800.047   200872668.771        -301.202          38.000  
C38  37165610.533   193531086.950         331.158          40.000                                                                  
C39  36934344.145   192326825.409           0.898          41.000                                                                  
C13  37930834.932   197515809.107         590.140          36.000    37930825.312   152731719.327         458.159          32.000  
C32  25123928.760   130826900.878         984.467          29.000                                                                  
C41  24212626.657   126081518.639        -422.595          28.000                                                                  
C08  37694353.512   196284397.512         554.528          26.000    37694335.046   151779464.584         429.288          28.000  
R16  21923137.877   117109448.109        -758.064          48.000    21923136.005    91085133.507        -589.438          41.000  
R09  21724605.853   116008189.900        2714.941          49.000    21724604.004    90228608.558        2111.731          43.000  
R07  23031833.226   123291198.753         718.961          33.000    23031821.974                         555.122          26.000  
R21  21959704.731   117510825.876       -3164.987          36.000    21959700.788    91397272.921       -2461.560          33.000  
R20  24517782.888   131107521.810       -4419.079          28.000    24517775.643                       -3435.808          23.000  
E33  24707495.571   129838792.483          51.849          31.000    24707476.415    99486762.147          39.856          33.000  
E26  25241343.268   132644148.608       -2482.213          44.000    25241342.767   101636422.479       -1901.878          41.000  
G25  24414883.653   128301078.7763       2591.763          28.000    24414915.854    99974941.118        2019.490          32.000  
S29  37806586.862   198674953.079        -303.800          34.000  
E29  25164277.691   132239165.331       -1068.712          38.000    25164277.755   101326114.375        -818.271          33.000  
E19  25454826.197   133765874.694         271.297          28.000    25454851.965   102496138.352         207.822          29.000  
C16  37543837.982   195500609.249         168.362          38.000    37543827.487   151173430.332         130.554          35.000  
C27  24767409.393   128970377.175       -2282.599          30.000                                                                  
C09  38443215.825   200183904.871         469.645          39.000    38443202.021   154794825.944         363.024          36.000  
C25  23907218.191   124491166.023       -1232.568          46.000                                                                  
C10  40762008.590   212258461.778       -1257.743          28.000    40762005.933                        -971.238          26.000  
R22  22627976.759   120789706.840         858.051          34.000    22627980.111                         667.540          19.000  
R06  22226994.035                        -321.290          15.000                                                                  
E27  27871105.165                        1247.951          26.000                                                                  
G15  23977330.991                       -2335.017          23.000                                                                  
G32  24471604.155   128599111.640         922.984          33.000    24471599.519   100207111.850         718.838          38.000  
J02  38081975.121   200122129.2032       -293.647          33.000    38081978.769   155939407.655        -228.307          35.000  
E21  28468861.475                        1841.278          21.000                                                                  
G12  24434515.794   128404247.984        1785.902          38.000    24434509.387   100055231.385        1390.759          32.000  
J07  37402017.487   196548924.805        -303.964          41.000    37402014.092   153154999.575        -236.647          43.000  
J03  36877254.852   193791276.992        -213.587          46.000    36877254.049   151006190.771        -166.479          44.000  
G10  24378862.440   128111798.941        2495.709          29.000    24378864.492    99827350.636        1944.791          26.000  
J04                                                                  40292260.217   164990068.553         116.545          41.000  
> 2025 10 27 01 32 07.0030000  0 39                     
G24  21719892.413   114138817.119       -2500.642          27.000    21719890.075    88939322.622       -1948.865          23.000  
S37  37402070.742   196549207.325        -303.998          43.000  
G18  21817698.997   114652777.819       -1969.965          36.000    21817697.073    89339793.578       -1534.985          40.000  
G23  21541753.911   113202688.8151       1167.774          39.000    21541766.281    88209884.446         909.583          33.000  
S28  38224857.453   200872969.984        -301.435          40.000  
C38  37165546.970   193530755.630         331.067          42.000                                                                  
C39  36934343.997   192326824.187           0.877          43.000                                                                  
C13  37930721.648   197515218.945         590.160          38.000    37930711.975   152731263.064         456.429          31.000  
C32  25123740.509   130825916.495         984.856          29.000                                                                  
C41  24212707.198   126081941.282        -422.952          28.000                                                                  
C08  37694246.885   196283842.821         554.301          33.000    37694228.645   151779035.490         429.479          28.000  
R16  21923279.898   117110206.393        -758.823          48.000    21923277.906    91085723.301        -589.829          38.000  
R09  21724097.503   116005475.085        2714.294          49.000    21724095.608    90226496.991        2111.188          42.000  
R07  23031698.923   123290480.313         717.929          35.000    23031685.960                         561.644          23.000  
R21  21960296.379   117513991.251       -3165.732          39.000    21960292.161    91399734.836       -2462.164          32.000  
R20  24518607.714   131111941.109       -4418.968          28.000    24518605.867   101976002.4923      -3437.434          26.000  
E33  24707478.374   129838740.945          50.841          35.000    24707466.865    99486722.533          39.348          38.000  
E26  25241815.657   132646630.933       -2482.635          41.000    25241814.983   101638324.517       -1902.172          37.000  
G25  24414397.831   128298487.8812       2590.546          29.000    24414422.670    99972922.147        2018.891          32.000  
S29  37806644.689   198675256.901        -303.891          35.000  
E29  25164480.993   132240233.778       -1068.811          40.000    25164480.790   101326933.097        -818.836          33.000  
E19  25454778.668   133765603.804         271.109          28.000    25454800.381   102495930.801         207.554          28.000  
C16  37543805.625   195500440.572         168.430          38.000    37543795.000   151173299.833         130.700          36.000  
C27  24767847.579   128972658.865       -2281.970          29.000                                                                  
C09  38443125.827   200183435.332         469.410          36.000    38443111.879   154794462.896         362.753          35.000  
C25  23907454.937   124492398.598       -1232.972          46.000                                                                  
C10  40762249.975   212259719.094       -1256.918          28.000    40762248.085                        -972.612          25.000  
R22  22627822.007   120788848.986         857.617          34.000    22627820.723                         667.976          24.000  
R06  22227055.379                        -327.518          19.000                                                                  
E27  27870865.181                        1248.269          24.000                                                                  
G15  23977775.525                       -2335.017          23.000                                                                  
G32  24471428.821   128598188.829         922.478          29.000    24471423.426   100206392.819         718.889          39.000  
J02  38082022.476   200122422.1341       -293.269          27.000    38082034.215   155939636.040        -228.246          39.000  
E21  28468509.797                        1842.388          22.000                                                                  
G12  24434175.929   128402462.457        1785.237          36.000    24434169.414   100053839.1291       1391.579          27.000  
J07  37402075.299   196549228.595        -304.037          39.000    37402071.910   153155236.325        -237.040          42.000  
J03  36877295.533   193791490.547        -213.682          44.000    36877294.690   151006357.155        -166.666          43.000  
G10  24378387.585   128109302.894        2495.717          35.000    24378389.723    99825405.782        1944.640          27.000  
J04                                                                  40292231.710   164989951.440         117.144          41.000  
> 2025 10 27 01 32 08.0030000  0 38                     
G24  21720368.342   114141318.148       -2501.129          30.000    21720365.659    88941271.518       -1949.652          24.000  
S37  37402128.614   196549511.087        -304.095          43.000  
G18  21818073.970   114654747.877       -1970.355          38.000    21818072.074    89341328.701       -1535.480          42.000  
G23  21541531.866   113201521.182        1167.429          40.000    21541539.732    88208974.618         909.246          36.000  
S28  38224914.877   200873271.183        -301.264          40.000  
C38  37165483.265   193530424.354         330.983          44.000                                                                  
C39  36934343.931   192326823.079           1.001          43.000                                                                  
C13  37930608.236   197514628.747         590.020          39.000    37930598.463   152730806.709         456.575          34.000  
C32  25123551.983   130824932.092         984.179          31.000                                                                  
C41  24212785.243   126082363.907        -422.544          29.000                                                                  
C08  37694140.395   196283288.146         554.459          36.000    37694122.177   151778606.644         428.499          34.000  
R16  21923422.021   117110965.523        -759.823          48.000    21923419.974    91086313.745        -590.816          36.000  
R09  21723589.254   116002760.757        2713.855          49.000    21723587.265    90224385.869        2110.822          41.000  
R07  23031564.642   123289761.904         718.002          33.000    23031551.511                         555.209          18.000  
R21  21960888.099   117517157.113       -3166.284          39.000    21960883.973    91402197.161       -2463.095          30.000  
R20  24519432.199   131116360.332       -4419.050          27.000    24519436.586   101979439.6492      -3437.348          27.000  
E33  24707469.361   129838689.816          50.652          35.000    24707457.110    99486683.343          38.758          39.000  
E26  25242288.129   132649113.532       -2482.866          41.000    25242287.311   101640226.775       -1902.298          33.000  
G25  24413905.662   128295896.7522       2590.425          31.000    24413928.735    99970903.057        2018.603          32.000  
S29  37806702.671   198675560.888        -304.589          33.000  
E29  25164684.379   132241302.179       -1068.373          41.000    25164683.964   101327751.809        -818.904          37.000  
E19  25454737.370   133765333.074         270.664          28.000    25454748.679   102495723.321         207.247          28.000  
C16  37543773.250   195500271.956         168.467          40.000    37543762.567   151173169.475         130.009          36.000  
C27  24768285.636   128974940.563       -2281.390          32.000                                                                  
C09  38443035.650   200182965.880         469.369          36.000    38443021.463   154794099.896         362.872          32.000  
C25  23907691.814   124493631.718       -1233.484          46.000                                                                  
C10  40762491.860   212260976.404       -1257.865          29.000    40762489.865                        -967.740          23.000  
R22  22627664.219   120787992.084         855.851          35.000    22627658.156                         666.672          24.000  
R06  22227116.668   118608153.0243       -326.031          25.000                                                                  
E27  27870627.249                        1246.263          23.000                                                                  
G32  24471254.620   128597266.145         922.010          31.000    24471247.510   100205673.892         718.729          37.000  
J02  38082071.409                1       -290.679          26.000    38082089.568   155939864.401        -228.671          40.000  
E21  28468159.152                        1841.123          22.000                                                                  
G12  24433836.190   128400677.105        1785.063          36.000    24433832.117   100052447.917        1390.888          31.000  
J07  37402133.081   196549532.336        -303.374          40.000    37402129.642   153155473.010        -236.647          41.000  
J03  36877336.126   193791704.215        -213.778          44.000    36877335.472   151006523.660        -166.826          41.000  
G10  24377912.505   128106806.889        2495.706          34.000    24377915.166    99823460.851        1944.212          30.000  
J04                                                                  40292203.114   164989834.334         116.807          43.000  
> 2025 10 27 01 32 09.0030000  0 38                     
G24  21720844.364   114143819.785       -2502.492          28.000    21720841.601    88943220.870       -1949.467          25.000  
S37  37402186.490   196549814.916        -303.760          44.000  
G18  21818449.005   114656718.550       -1970.734          34.000    21818447.037    89342864.304       -1536.218          39.000  
G23  21541309.854   113200353.861        1167.035          37.000    21541316.838    88208064.977         909.240          35.000  
S28  38224972.230   200873572.472        -301.457          43.000  
C38  37165419.818   193530093.223         330.864          41.000                                                                  
C39  36934343.736   192326822.210           0.894          40.000                                                                  
C13  37930494.975   197514038.495         589.853          36.000    37930485.041   152730350.319         456.445          34.000  
C32  25123362.694   130823947.709         983.434          30.000                                                                  
C41  24212864.103   126082786.666        -423.581          29.000                                                                  
C08  37694033.918   196282733.509         554.548          32.000    37694015.634   151778177.841         429.326          30.000  
R16  21923564.320   117111725.586        -760.673          49.000    21923562.337    91086904.865        -591.613          39.000  
R09  21723081.046   116000047.023        2713.343          50.000    21723079.149    90222275.205        2110.199          43.000  
R07  23031430.355   123289043.554         718.396          32.000    23031417.684                         556.954          18.000  
R21  21961479.935   117520323.647       -3166.691          41.000    21961475.804    91404660.033       -2462.842          32.000  
R20  24520258.754   131120779.546       -4419.059          27.000    24520264.891   101982876.703       -3436.616          27.000  
E33  24707455.782   129838639.284          50.298          33.000    24707447.340    99486644.523          38.563          37.000  
E26  25242760.957   132651596.546       -2483.381          41.000    25242759.664   101642129.318       -1902.893          35.000  
G25  24413413.654   128293305.4952       2590.491          29.000    24413434.998    99968883.985        2019.196          31.000  
S29  37806760.609   198675865.095        -304.265          37.000  
E29  25164887.634   132242370.641       -1068.619          38.000    25164887.353   101328570.495        -818.945          36.000  
E19  25454691.137   133765062.437         270.465          29.000    25454697.259   102495515.929         207.053          28.000  
C16  37543740.875   195500103.570         168.083          38.000    37543730.305   151173039.276         130.272          36.000  
C27  24768723.950   128977222.592       -2282.520          32.000                                                                  
C09  38442945.639   200182496.673         468.843          39.000    38442931.213   154793737.017         362.068          33.000  
C25  23907928.854   124494865.458       -1234.221          47.000                                                                  
C10  40762733.603   212262233.629       -1258.171          29.000    40762731.933                        -962.770          21.000  
R22  22627504.522   120787136.072         855.694          35.000    22627498.221                         665.687          24.000  
R06  22227177.210                        -330.393          24.000                                                                  
E27  27870388.554                        1249.148          21.000                                                                  
G32  24471079.425   128596343.769         922.396          35.000    24471071.529   100204955.106         718.818          37.000  
J02  38082125.849   200122921.1243       -293.225          37.000    38082145.086   155940092.792        -228.406          37.000  
E21  28467808.642                        1841.752          22.000                                                                  
G12  24433496.404   128398892.007        1784.587          37.000    24433490.897   100051056.846        1390.769          30.000  
J07  37402190.990   196549836.194        -304.307          40.000    37402187.493   153155709.779        -237.081          43.000  
J03  36877376.960   193791918.118        -214.069          45.000    36877376.197   151006690.353        -167.248          42.000  
G10  24377437.451   128104310.962        2496.068          32.000    24377440.641    99821515.947        1944.432          29.000  
J04                                                                  40292174.651   164989717.204         116.975          41.000  
> 2025 10 27 01 32 10.0030000  0 39                     
G24  21721320.354   114146321.975       -2502.617          28.000    21721317.238                       -1949.990          25.000  
S37  37402244.292   196550118.907        -303.790          42.000  
G18  21818824.200   114658690.021       -1972.314          33.000    21818822.210    89344400.453       -1536.585          39.000  
G23  21541087.856   113199186.847        1166.769          37.000    21541094.476    88207155.614         908.980          33.000  
S28  38225029.634   200873873.880        -302.172          42.000  
C38  37165356.278   193529762.222         331.100          39.000                                                                  
C39  36934343.578   192326821.674           0.467          41.000                                                                  
C13  37930381.643   197513448.322         590.876          36.000    37930371.652   152729893.968         456.376          34.000  
C32  25123173.430   130822963.445         984.597          29.000                                                                  
C41  24212942.743   126083209.436        -422.291          29.000                                                                  
C08  37693927.469   196282179.031         555.145          31.000    37693909.270                         430.891          28.000  
R16  21923706.793   117112486.530        -761.263          49.000    21923704.755    91087496.723        -592.109          41.000  
R09  21722572.918   115997333.765        2713.062          51.000    21722570.965    90220164.909        2110.272          41.000  
R07  23031296.115   123288325.175         717.788          31.000    23031283.758                         559.455          24.000  
R21  21962071.930   117523490.755       -3167.505          42.000    21962068.001    91407123.310       -2463.255          32.000  
R20  24521085.060   131125198.578       -4418.761          27.000    24521094.615   101986313.784       -3436.553          25.000  
E33  24707448.655   129838589.292          49.118          26.000    24707437.577    99486606.223          38.209          34.000  
E26  25243233.684   132654079.988       -2483.593          42.000    25243232.173   101644032.190       -1902.880          31.000  
G25  24412920.257   128290714.4852       2591.225          29.000    24412941.901    99966864.959        2019.826          31.000  
S29  37806818.526   198676169.325        -304.543          36.000  
E29  25165091.074   132243439.276       -1068.577          38.000    25165091.017   101329389.284        -818.575          37.000  
E19  25454632.960   133764792.050         270.537          31.000    25454646.041   102495308.736         207.303          28.000  
C16  37543708.585   195499935.562         167.360          37.000    37543698.063   151172909.301         130.375          35.000  
C27  24769162.352   128979505.041       -2282.977          33.000                                                                  
C09  38442855.453   200182027.662         468.982          40.000    38442840.986   154793374.303         363.069          34.000  
C25  23908165.984   124496099.770       -1234.709          47.000                                                                  
C10  40762975.107   212263490.786       -1257.813          30.000    40762974.236                        -973.258          21.000  
R22  22627344.188   120786280.916         854.447          35.000    22627337.851                         664.255          25.000  
R06  22227238.191                        -318.967          22.000                                                                  
E27  27870156.879                        1245.377          22.000                                                                  
G15  23979129.752                       -2340.746          25.000                                                                  
G32  24470903.881   128595421.520         922.427          26.000    24470895.769   100204236.505         718.376          38.000  
J02  38082188.466   200123214.3792       -292.932          39.000    38082200.695   155940321.308        -229.220          36.000  
E21  28467459.219                        1838.887          23.000                                                                  
G12  24433156.755   128397107.182        1784.584          39.000    24433151.886   100049666.089        1390.784          29.000  
J07  37402248.878   196550140.181        -304.055          40.000    37402245.369   153155946.619        -236.918          43.000  
J03  36877417.746   193792132.212        -214.295          47.000    36877416.918   151006857.137        -166.830          41.000  
G10  24376962.412   128101814.962        2496.963          31.000    24376966.182    99819571.043        1945.088          29.000  
J04                                                                  40292146.036   164989600.110         117.048          39.000  
> 2025 10 27 01 32 11.0030000  0 38                     
G24  21721797.497                1      -2503.979          26.000    21721794.071                       -1950.486          25.000  
S37  37402302.206   196550422.872        -303.851          42.000  
G18  21819199.480   114660661.859       -1972.388          35.000    21819197.467    89345937.016       -1536.847          36.000  
G23  21540865.926   113198019.979        1166.602          34.000    21540871.760    88206246.406         908.703          33.000  
S28  38225087.025   200874175.246        -300.872          40.000  
C38  37165292.745   193529431.434         328.580          30.000                                                                  
C39  36934343.453   192326821.304           0.301          34.000                                                                  
C13  37930268.316   197512858.078         590.390          32.000    37930258.345   152729437.557         456.555          34.000  
C32  25122984.536   130821979.060         984.338          31.000                                                                  
C41  24213026.272                        -428.230          26.000                                                                  
C08  37693821.817                1        551.328          21.000    37693802.762   151777323.1313        428.832          36.000  
R16  21923849.355   117113248.316        -762.297          49.000    21923847.423    91088089.187        -592.865          41.000  
R09  21722064.851   115994620.942        2712.592          50.000    21722063.041    90218054.983        2109.784          40.000  
R07  23031161.874   123287606.748         718.430          32.000    23031150.339    95890317.2283        558.696          26.000  
R21  21962663.947   117526658.434       -3168.103          40.000    21962660.110                       -2468.685          25.000  
R20  24521911.102   131129617.486       -4417.660          30.000    24521923.226                       -3447.838          23.000  
E33  24707436.778   129838455.6101         49.526          31.000    24707427.791    99486568.264          38.121          31.000  
E26  25243706.999   132656563.728       -2483.799          42.000    25243704.734   101645935.283       -1902.689          32.000  
G25  24412430.688   128288123.3972       2590.977          35.000    24412448.514    99964845.983        2018.888          31.000  
S29  37806876.610   198676473.530        -303.987          37.000  
E29  25165294.835   132244507.954       -1069.163          35.000    25165294.440   101330208.062        -818.929          38.000  
E19  25454573.052   133764521.831         269.979          32.000    25454594.931   102495101.609         207.062          27.000  
C16  37543676.302   195499767.629         167.545          36.000    37543665.738   151172779.572         128.819          32.000  
C27  24769600.551   128981787.631       -2282.611          36.000                                                                  
C09  38442765.375   200181558.799         469.161          39.000    38442751.037   154793011.813         362.456          35.000  
C25  23908403.098   124497334.585       -1235.029          46.000                                                                  
C10  40763216.500   212264747.814       -1256.804          30.000    40763215.421                        -972.881          25.000  
R22  22627184.147   120785426.396         853.996          36.000    22627176.480                         658.185          22.000  
R06  22227298.149                        -320.984          23.000                                                                  
E27  27869924.422                        1245.214          22.000                                                                  
G32  24470726.761   128594536.3103        922.185          35.000    24470719.986   100203517.982         717.939          34.000  
J02  38082245.760   200123507.4502       -292.799          42.000    38082256.255   155940549.768        -228.862          35.000  
E21  28467111.086                        1840.744          24.000                                                                  
G12  24432817.067   128395322.530        1784.125          39.000    24432819.027   100048275.741        1390.421          27.000  
J07  37402306.767   196550444.128        -303.760          39.000    37402303.282   153156183.398        -236.830          41.000  
J03  36877458.609   193792346.364        -214.049          47.000    36877457.613   151007024.040        -166.863          38.000  
G10  24376487.378   128099319.004        2495.786          30.000    24376492.098                        1944.425          26.000  
J04                                                                  40292117.403   164989483.002         117.073          40.000  
> 2025 10 27 01 32 12.0030000  0 38                     
G24  21722275.634                       -2503.380          26.000    21722271.391    88949069.2961      -1950.486          26.000  
S37  37402360.121   196550726.700        -303.967          42.000  
G18  21819574.870   114662634.323       -1972.634          31.000    21819572.846    89347473.989       -1537.677          35.000  
G23  21540644.211   113196853.594        1166.129          34.000    21540649.175    88205337.508         908.980          33.000  
S28  38225144.391   200874476.451        -301.282          40.000  
C38  37165229.217   193529100.127         330.772          34.000                                                                  
C39  36934343.296   192326820.880           0.808          37.000                                                                  
C13  37930155.097   197512267.879         590.418          32.000    37930144.925   152728981.155         456.312          34.000  
C32  25122795.606   130820994.500         985.153          32.000                                                                  
C41  24213106.158                        -424.936          24.000                                                                  
C08  37693718.375                         556.251          21.000    37693695.348   151776894.2982        428.177          31.000  
R16  21923992.124   117114010.847        -762.858          48.000    21923990.233    91088682.297        -593.772          43.000  
R09  21721556.929   115991908.526        2712.091          49.000    21721555.108    90215945.338        2109.338          40.000  
R07  23031027.446   123286888.038         718.747          35.000    23031016.469    95889758.3062        558.739          27.000  
R21  21963255.902   117529826.445       -3168.354          41.000    21963253.027                       -2464.465          26.000  
R20  24522737.358   131134036.319       -4418.989          31.000    24522753.813                       -3432.221          22.000  
E33  24707431.577   129838406.534          48.682          30.000    24707418.304    99486530.577          37.329          32.000  
E26  25244180.055   132659047.644       -2484.085          43.000    25244177.379   101647838.572       -1903.102          32.000  
G25  24411938.563   128285532.1092       2591.197          34.000    24411955.083    99962826.818        2019.882          31.000  
S29  37806934.590   198676777.547        -303.903          38.000  
E29  25165498.597   132245576.540       -1068.572          35.000    25165497.892   101331026.884        -818.873          38.000  
E19  25454519.354   133764251.570         270.291          33.000    25454543.925   102494894.538         207.068          28.000  
C16  37543644.105   195499599.664         167.843          36.000    37543633.521   151172649.654         129.344          32.000  
C27  24770038.903   128984070.233       -2282.501          36.000                                                                  
C09  38442675.236   200181089.865         468.964          38.000    38442660.901   154792649.173         362.433          34.000  
C25  23908640.253   124498569.778       -1235.435          46.000                                                                  
C10  40763457.965   212266004.636       -1256.865          29.000    40763455.593   164137543.6293       -971.329          27.000  
R22  22627024.411   120784572.565         852.651          33.000    22627016.089                         660.455          21.000  
R06  22227358.510                        -327.134          22.000                                                                  
E27  27869692.022                        1243.411          23.000                                                                  
G32  24470550.238   128593614.0542        921.848          35.000    24470544.265   100202799.424         718.457          35.000  
J02  38082302.968   200123800.4632       -292.522          42.000    38082311.839   155940778.017        -229.009          31.000  
E21  28466761.652                        1841.942          25.000                                                                  
G12  24432477.497   128393537.984        1785.134          37.000    24432486.373   100046885.129        1390.387          28.000  
J07  37402364.545   196550747.965        -303.901          38.000    37402361.093   153156420.159        -236.923          40.000  
J03  36877499.394   193792560.535        -214.303          47.000    36877498.247   151007190.920        -167.035          39.000  
G10  24376012.193   128096822.937        2495.831          28.000    24376017.192                        1945.055          25.000  
J04                                                                  40292088.764   164989365.594         117.247          40.000  
> 2025 10 27 01 32 13.0030000  0 38                     
G24  21722751.334   114153827.7583      -2504.437          29.000    21722748.779    88951020.146       -1951.188          25.000  
S37  37402417.867   196551030.481        -303.717          40.000  
G18  21819950.240   114664607.268       -1973.212          34.000    21819948.368    89349011.372       -1537.805          36.000  
G23  21540422.335   113195687.368        1166.358          37.000    21540427.082    88204428.607         909.146          27.000  
S28  38225201.818   200874777.826        -301.689          40.000  
C38  37165165.745   193528769.114         330.983          37.000                                                                  
C39  36934343.201   192326820.582           0.630          34.000                                                                  
C13  37930041.804   197511677.438         590.886          36.000    37930031.561   152728524.658         456.386          30.000  
C32  25122606.674   130820009.848         984.331          33.000                                                                  
C41  24213183.540                        -424.447          21.000                                                                  
C08  37693614.890   196280543.9363        553.963          26.000    37693587.707   151776465.4062        429.053          30.000  
R16  21924134.972   117114774.185        -763.871          48.000    21924133.122    91089275.974        -593.820          43.000  
R09  21721049.020   115989196.591        2711.823          49.000    21721047.309    90213836.056        2108.734          42.000  
R07  23030893.155   123286169.258         717.714          31.000    23030883.031    95889198.5561        559.899          26.000  
R21  21963848.083   117532994.980       -3168.770          42.000    21963849.393    91414551.1243      -2466.003          28.000  
R20  24523563.401   131138454.983       -4418.592          32.000    24523581.582                       -3433.020          22.000  
E33  24707418.781   129838357.797          48.925          30.000    24707408.996    99486493.247          36.960          33.000  
E26  25244652.728   132661531.905       -2484.368          42.000    25244649.929   101649742.278       -1904.227          31.000  
G25  24411445.511   128282940.8352       2591.427          33.000    24411461.586    99960807.749        2018.742          30.000  
S29  37806992.453   198677081.666        -304.427          41.000  
E29  25165701.899   132246645.071       -1068.361          36.000    25165701.403   101331845.634        -818.624          34.000  
E19  25454466.611   133763981.461         270.019          32.000    25454492.672   102494687.536         206.973          29.000  
C16  37543611.773   195499431.848         167.764          34.000    37543601.347   151172519.900         129.720          32.000  
C27  24770477.300   128986353.041       -2283.105          36.000                                                                  
C09  38442585.213   200180621.135         468.614          39.000    38442570.857   154792286.691         362.869          34.000  
C25  23908877.504   124499805.470       -1236.011          44.000                                                                  
C10  40763699.459   212267261.334       -1256.681          29.000    40763696.949   164138515.2122       -971.803          27.000  
R22  22626864.678   120783719.660         852.123          34.000    22626856.953                         660.366          20.000  
R06  22227419.233                        -322.250          20.000                                                                  
E27  27869458.854                        1242.616          24.000                                                                  
G32  24470369.955   128592661.6093        921.388          28.000    24470368.592   100202080.924         718.496          36.000  
J02  38082356.354   200124093.545        -292.921          40.000    38082367.218   155941006.430        -227.217          31.000  
E21  28466412.945                        1843.304          25.000                                                                  
G12  24432138.019   128391753.580        1784.307          39.000    24432151.635   100045494.744        1389.946          26.000  
J07  37402422.430   196551051.758        -303.950          36.000    37402418.898   153156656.903        -237.216          42.000  
J03  36877540.170   193792774.797        -214.263          47.000    36877538.983   151007357.948        -167.507          39.000  
G10  24375537.302   128094326.525        2495.739          26.000    24375542.374                        1941.807          23.000  
J04                                                                  40292060.080   164989248.152         117.343          38.000  
> 2025 10 27 01 32 14.0030000  0 38                     
G24  21723226.997                       -2504.488          27.000    21723225.011                       -1951.844          25.000  
S37  37402475.716   196551334.209        -304.059          41.000  
G18  21820325.880   114666580.801       -1973.981          35.000    21820324.061    89350549.242       -1538.190          36.000  
G23  21540200.838   113194521.336        1165.910          37.000    21540205.267    88203520.247         908.006          34.000  
S28  38225259.207   200875079.196        -302.166          40.000  
C38  37165102.176   193528438.187         331.558          32.000                                                                  
C39  36934343.091   192326820.445          -0.138          29.000                                                                  
C13  37929928.490   197511086.961         590.132          34.000    37929918.127   152728068.164         456.021          31.000  
C32  25122417.725   130819025.297         984.957          32.000                                                                  
C41  24213262.088                        -422.971          18.000                                                                  
C08  37693505.763   196279989.2782        554.490          32.000    37693482.102   151776036.4402        428.576          37.000  
R16  21924277.903   117115538.265        -764.593          51.000    21924276.108    91089870.342        -595.151          39.000  
R09  21720541.280   115986485.036        2711.200          48.000    21720539.557    90211727.119        2108.569          44.000  
R07  23030758.767   123285450.738         718.902          34.000    23030750.698                1        559.784          23.000  
R21  21964440.288   117536164.061       -3169.844          40.000    21964442.863                       -2465.211          21.000  
R20  24524389.429   131142873.502       -4418.369          31.000    24524404.139                       -3437.000          22.000  
E33  24707410.398   129838309.409          47.463          38.000    24707399.695    99486456.120          36.090          28.000  
E26  25245125.522   132664016.446       -2484.840          44.000    25245122.799   101651645.875       -1904.097          33.000  
G25  24410952.904   128280349.437        2591.004          36.000    24410967.616    99958788.533        2019.326          29.000  
S29  37807050.346   198677385.705        -304.445          38.000  
E29  25165904.817   132247713.510       -1069.306          32.000    25165904.781   101332664.459        -818.869          37.000  
E19  25454412.918   133763711.414         270.227          32.000    25454441.741   102494480.576         206.822          29.000  
C16  37543579.590   195499264.085         167.688          34.000    37543569.121   151172390.226         128.776          26.000  
C27  24770915.675   128988636.139       -2283.350          33.000                                                                  
C09  38442495.095   200180152.439         468.622          39.000    38442480.833   154791924.276         362.476          34.000  
C25  23909114.955   124501041.546       -1236.045          46.000                                                                  
C10  40763940.790   212268517.703       -1256.883          29.000    40763939.413                        -972.081          28.000  
R22  22626705.027   120782867.406         852.432          31.000    22626696.514                         660.100          20.000  
R06  22227480.109   118610092.2863       -327.336          24.000                                                                  
E27  27869221.150                        1261.840          22.000                                                                  
G32  24470183.343   128591739.8192        921.445          38.000    24470192.972   100201362.603         717.961          33.000  
J02  38082415.016   200124386.428        -292.954          44.000    38082422.733   155941234.793        -230.764          35.000  
E21  28466063.525                        1843.272          22.000                                                                  
G12  24431798.593   128389969.388        1784.340          36.000    24431810.611   100044104.270        1390.158          35.000  
J07  37402480.239   196551355.487        -304.219          38.000    37402476.732   153156893.607        -236.461          40.000  
J03  36877580.929   193792989.134        -214.492          47.000    36877579.817   151007525.002        -167.578          42.000  
G10  24375062.470   128091830.323        2496.370          28.000    24375066.108                        1952.741          21.000  
J04                                                                  40292031.460   164989130.564         117.488          40.000  
> 2025 10 27 01 32 15.0030000  0 35                     
G24  21723704.464                       -2503.500          24.000    21723701.542                       -1951.740          25.000  
S37  37402533.422   196551637.919        -303.851          44.000  
G18  21820701.577   114668554.866       -1974.420          39.000    21820699.770    89352087.486       -1538.947          37.000  
G23  21539979.263   113193355.654        1165.052          39.000    21539982.982    88202628.9021        908.108          36.000  
S28  38225316.565   200875380.451        -301.340          41.000  
C38  37165038.489   193528107.246         331.248          33.000                                                                  
C39  36934343.046   192326820.368          -0.140          31.000                                                                  
C13  37929815.089   197510496.451         590.301          37.000    37929804.667   152727611.536         456.575          31.000  
C32  25122228.690   130818040.531         983.516          33.000                                                                  
C08  37693396.515   196279434.0411        554.183          32.000    37693375.991   151775607.0001        428.577          36.000  
R16  21924421.086   117116303.210        -765.264          54.000    21924419.343    91090465.199        -594.507          37.000  
R09  21720033.653   115983773.917        2710.736          50.000    21720031.896    90209618.489        2108.405          44.000  
R07  23030624.573   123284731.847         718.123          34.000    23030616.852                         559.784          19.000  
R21  21965032.559   117539333.452       -3169.700          40.000    21965036.502    91419491.5513      -2465.680          29.000  
R20  24525215.107   131147291.792       -4418.818          30.000    24525229.201                       -3438.609          22.000  
E33  24707404.824   129838261.496          47.437          40.000    24707390.804    99486419.439          36.309          29.000  
E26  25245598.704   132666501.258       -2485.085          45.000    25245595.743   101653549.859       -1904.508          34.000  
G25  24410459.913   128277758.006        2590.879          35.000    24410473.332    99956769.232        2019.085          28.000  
S29  37807108.255   198677689.681        -304.177          40.000  
E29  25166107.801   132248782.007       -1069.076          33.000    25166108.250   101333483.215        -818.469          36.000  
E19  25454360.450   133763441.434         270.148          32.000    25454390.760   102494273.714         206.681          29.000  
C16  37543547.461   195499096.549         167.317          40.000    37543536.899   151172260.572         130.227          27.000  
C27  24771354.137   128990919.181       -2283.093          36.000                                                                  
C09  38442405.145   200179683.820         468.386          40.000    38442390.908   154791561.934         362.653          33.000  
C25  23909352.296   124502278.183       -1236.916          50.000                                                                  
C10  40764182.111   212269774.062       -1255.769          36.000    40764177.220   164140449.1303       -970.819          29.000  
R22  22626545.879   120782016.065         850.878          33.000    22626538.126                         661.860          21.000  
R06  22227541.433   118610419.6042       -327.208          25.000                                                                  
G32  24470012.779   128590817.9412        921.529          41.000    24470017.321   100200644.167         719.156          33.000  
J02  38082471.095   200124679.359        -293.218          44.000    38082478.291   155941462.960        -228.954          33.000  
G12  24431459.166   128388185.234        1784.046          40.000    24431469.481   100042714.045        1390.389          33.000  
J07  37402538.042   196551659.201        -303.822          41.000    37402534.531   153157130.279        -236.680          41.000  
J03  36877621.816   193793203.538        -214.503          48.000    36877620.603   151007692.059        -166.878          42.000  
G10  24374587.739   128089333.970        2495.889          30.000    24374592.653                        1941.986          18.000  
J04                                                                  40292002.690   164989012.843         117.808          39.000  
> 2025 10 27 01 32 16.0030000  0 36                     
G24  21724189.068                       -2508.041          29.000    21724177.660                       -1952.759          25.000  
S37  37402591.456   196551941.666        -303.888          39.000  
G18  21821077.434   114670529.570       -1975.592          38.000    21821075.557    89353626.224       -1539.032          34.000  
G23  21539757.654   113192190.555        1164.367          32.000    21539760.995    88201720.923         909.107          31.000  
S28  38225373.872   200875681.649        -301.597          39.000  
C38  37164974.808   193527776.192         331.141          39.000                                                                  
C39  36934343.103   192326820.513          -0.399          40.000                                                                  
C13  37929701.824   197509906.179         590.306          36.000    37929691.129   152727155.107         455.758          31.000  
C32  25122039.454   130817055.458         985.694          28.000                                                                  
C08  37693289.648   196278879.266         554.617          33.000    37693270.584   151775178.048         430.486          28.000  
R16  21924564.521   117117069.094        -766.591          51.000    21924562.615    91091060.946        -596.316          41.000  
R09  21719526.022   115981063.380        2710.150          49.000    21719524.446    90207510.267        2107.971          42.000  
R07  23030490.558   123284012.867         718.983          32.000    23030481.331                         562.737          26.000  
R21  21965624.932   117542503.404       -3169.896          35.000    21965630.928    91421957.0252      -2465.494          30.000  
R20  24526040.981   131151709.976       -4416.819          29.000    24526050.275                       -3430.308          22.000  
E33  24707398.133   129838214.168          46.219          32.000    24707381.663    99486383.193          36.314          31.000  
E26  25246071.598   132668986.500       -2485.683          42.000    25246068.645   101655454.177       -1904.265          29.000  
G25  24409967.058   128275166.635        2590.954          34.000    24409979.070    99954749.858        2019.237          28.000  
S29  37807166.332   198677993.649        -304.194          40.000  
E29  25166310.744   132249850.920       -1069.014          34.000    25166311.612   101334302.164        -818.987          36.000  
E19  25454308.351   133763171.649         269.385          31.000    25454339.795   102494067.011         206.319          30.000  
C16  37543515.398   195498929.149         167.404          37.000    37543504.819   151172131.198         129.124          28.000  
C27  24771792.600   128993202.460       -2283.936          37.000                                                                  
C09  38442315.189   200179215.331         468.276          37.000    38442300.901   154791199.631         362.423          32.000  
C25  23909589.828   124503515.407       -1237.777          50.000                                                                  
C10  40764423.277   212271030.330       -1256.319          35.000    40764414.523   164141420.6972       -972.898          30.000  
R22  22626386.482   120781165.452         849.679          36.000    22626381.366                         660.763          23.000  
R06  22227604.483                        -334.711          23.000                                                                  
G15  23981867.623                       -2348.805          23.000                                                                  
G32  24469840.016   128589895.8402        920.975          30.000    24469841.873   100199925.901         718.366          35.000  
J02  38082527.357   200124972.435        -293.308          43.000    38082534.076   155941691.663        -229.017          28.000  
G12  24431119.855   128386401.479        1783.101          36.000    24431129.875   100041323.984        1389.602          33.000  
J07  37402595.838   196551962.949        -304.072          36.000    37402592.418   153157367.054        -237.136          41.000  
J03  36877662.680   193793418.197        -214.684          46.000    36877661.392   151007859.262        -167.349          40.000  
G10  24374112.682   128086837.474        2495.499          29.000    24374120.520                        1945.441          19.000  
J04                                                                  40291973.895   164988895.004         117.729          39.000  
> 2025 10 27 01 32 17.0030000  0 34                     
G24  21724663.693   114163877.6573      -2505.957          37.000    21724654.338                       -1948.388          24.000  
S37  37402649.381   196552245.579        -304.028          42.000  
G18  21821453.418   114672505.023       -1976.117          42.000    21821451.454    89355165.477       -1540.155          40.000  
G23  21539536.183   113191025.871        1163.708          31.000    21539538.909    88200813.474         906.698          29.000  
S28  38225431.317   200875982.901        -301.360          44.000  
C38  37164911.302   193527445.288         331.562          39.000                                                                  
C39  36934343.196   192326820.896          -1.344          44.000                                                                  
C13  37929588.491   197509315.805         590.256          38.000    37929578.020                         458.119          25.000  
C32  25121849.695   130816062.8313        983.609          31.000                                                                  
C08  37693182.126   196278324.521         554.625          38.000    37693164.371                1        430.891          27.000  
R16  21924708.013   117117835.763        -767.132          49.000    21924706.126    91091657.266        -596.891          42.000  
R09  21719018.475   115978353.380        2709.656          46.000    21719017.005    90205402.412        2107.599          44.000  
R07  23030356.248   123283293.920         723.099          32.000    23030347.193                         556.236          25.000  
R21  21966217.395   117545674.087       -3171.918          43.000    21966221.240    91424423.006       -2465.262          35.000  
R20  24526866.562   131156128.456       -4417.636          34.000    24526877.971                       -3437.909          22.000  
E33  24707384.309   129838167.518          45.761          39.000    24707373.014    99486347.269          36.030          40.000  
E26  25246544.474   132671471.979       -2485.588          40.000    25246541.550   101657358.654       -1904.381          34.000  
G25  24409473.944                        2590.961          33.000    24409484.871                        2018.594          32.000  
S29  37807224.154   198678297.713        -303.564          42.000  
E29  25166513.835   132250919.594       -1069.180          39.000    25166514.807   101335121.294        -820.614          27.000  
E19  25454260.190   133762901.783         270.890          24.000    25454288.432   102493860.360         206.934          31.000  
C16  37543483.308   195498761.968         166.618          40.000    37543472.494   151172001.916         129.946          33.000  
C27  24772231.032   128995486.178       -2283.185          41.000                                                                  
C09  38442225.402   200178747.126         468.070          40.000    38442210.906   154790837.598         361.432          32.000  
C25  23909827.686   124504753.172       -1237.715          48.000                                                                  
C10  40764664.737                1      -1255.680          30.000    40764652.922   164142392.1612       -971.342          34.000  
R22  22626227.192   120780315.373         849.775          39.000    22626223.878                         661.357          25.000  
G32  24469660.163   128588974.1032        921.681          39.000    24469666.212   100199207.615         718.812          34.000  
J02  38082583.335   200125265.326        -292.730          43.000    38082590.638   155941920.172        -229.022          38.000  
G12  24430780.477   128384617.837        1783.206          39.000    24430790.043   100039934.191        1389.445          39.000  
J07  37402653.736   196552266.856        -303.922          40.000    37402650.163   153157603.821        -236.344          43.000  
J03  36877703.531   193793632.945        -214.946          46.000    36877702.246   151008026.598        -167.033          43.000  
G10  24373637.591   128084340.967        2496.943          31.000    24373645.964                        1944.762          23.000  
J04                                                                  40291945.177   164988777.308         117.382          43.000  
> 2025 10 27 01 32 23.0030000  0 37                     
G24  21727522.184   114178883.8732      -2506.024          32.000    21727516.798    88970525.6891      -1952.962          23.000  
S37  37402996.176   196554068.566        -299.292          41.000  
G18  21823711.417   114684369.243       -1975.134          38.000    21823709.098    89364410.412       -1538.446          41.000  
G23  21538207.476   113184042.972        1165.816          33.000    21538207.263    88195372.378         909.030          34.000  
S28  38225775.601   200877790.644        -297.783          42.000  
C38  37164530.178   193525461.728         334.134          41.000                                                                  
C39  36934344.155   192326826.796           2.482          43.000                                                                  
C13  37928907.926   197505774.098         593.046          37.000    37928896.650   152723952.8671        458.538          30.000  
C32  25120712.215   130810134.6332        986.926          29.000                                                                  
C41  24214000.230   126088653.1801       -421.424          25.000                                                                  
C08  37692542.109   196274997.606         558.085          34.000    37692523.501   151772178.2771        431.080          36.000  
R16  21925572.833   117122474.4221       -769.792          44.000    21925571.168    91095249.554        -598.867          41.000  
R09  21715975.253   115962102.773        2711.328          43.000    21715973.745    90192763.168        2108.093          43.000  
R07  23029547.512   123278970.0673        720.386          33.000    23029543.929    95883628.7973        560.485          32.000  
R21  21969774.304   117564708.616       -3171.034          47.000    21969771.613    91439227.546       -2465.849          37.000  
R20  24531805.299                1      -4412.784          25.000    24531828.760                       -3427.262          25.000  
E33  24707323.966   129837897.186          46.390          39.000    24707322.104                          34.950          26.000  
E26  25249382.464   132686391.849       -2483.698          40.000    25249381.444   101668790.759       -1902.968          43.000  
G25  24406517.465   128257106.3743       2594.169          29.000    24406530.785    99940663.2061       2021.208          25.000  
S29  37807571.696   198680122.420        -299.879          38.000  
E29  25167734.288   132257334.017       -1066.740          37.000    25167733.374   101340035.1321       -818.539          30.000  
E19  25453946.350   133761390.7981        271.675          27.000    25453938.160                         207.112          26.000  
C16  37543291.410   195497762.533         170.714          40.000    37543280.820   151171229.169         131.083          39.000  
C27  24774860.349   129009201.7831      -2282.135          42.000                                                                  
C09  38441686.253   200175940.200         471.724          39.000    38441671.566   154788679.1991        363.749          42.000  
C25  23911255.906   124512190.941       -1237.864          42.000                                                                  
C10  40766110.235   212279852.3841      -1254.782          37.000    40766101.501   164148194.3123       -969.260          36.000  
R22  22625277.056   120775265.2843        844.330          33.000    22625271.961                         666.122          25.000  
R06  22228037.469   118613048.1271       -325.306          29.000                                                                  
G32  24468614.567                         918.990          28.000    24468612.870   100194901.473         719.953          30.000  
J02  38082919.550   200127092.2993       -290.282          39.000    38082928.873   155943236.8121       -224.896          37.000  
G12  24429025.144                        1696.383          22.000    24428752.560   100031598.494        1390.331          33.000  
E21  28462906.036                        1840.271          19.000                                                                  
J07  37403000.078   196554089.821        -298.564          36.000    37402997.439   153159024.320        -232.798          42.000  
J03  36877949.232   193794923.564        -210.754          41.000    36877948.078   151009032.346        -164.624          42.000  
G10  24370788.815                1       2494.017          30.000    24370787.440                        1944.267          25.000  
J04                                                                  40291772.280   164988069.520         119.928          37.000  
> 2025 10 27 01 32 24.0030000  0 37                     
G24  21727999.286   114181392.4452      -2509.575          30.000    21727997.414    88972480.585       -1955.627          30.000  
S37  37403053.618   196554370.540        -302.258          43.000  
G18  21824087.851   114686347.404       -1979.236          44.000    21824085.508    89365951.705       -1542.114          42.000  
G23  21537986.160   113182880.119        1161.667          35.000    21537985.825    88194466.083         905.588          34.000  
S28  38225832.940   200878091.368        -302.454          43.000  
C38  37164466.557   193525130.500         329.505          40.000                                                                  
C39  36934344.047   192326826.973          -1.637          40.000                                                                  
C13  37928794.558   197505183.858         588.245          34.000    37928783.006   152723496.417         456.907          30.000  
C32  25120524.849                         982.921          35.000                                                                  
C41  24214083.373   126089076.390        -423.674          26.000                                                                  
C08  37692435.639   196274442.936         552.861          33.000    37692417.239   151771749.407         427.274          34.000  
R16  21925717.386   117123246.341        -772.939          47.000    21925715.686    91095849.901        -601.028          43.000  
R09  21715468.022   115959393.970        2709.216          46.000    21715466.337    90190656.251        2107.306          43.000  
R07  23029413.395                         718.108          33.000    23029407.126    95883059.3083        559.894          31.000  
R21  21970367.333   117567881.876       -3174.064          46.000    21970364.466    91441695.643       -2468.639          39.000  
R20  24532632.447   131187010.4713      -4413.979          30.000    24532651.174                       -3436.779          24.000  
E33  24707315.276   129837853.093          42.991          37.000    24707312.501                          34.454          28.000  
E26  25249855.269   132688877.822       -2486.207          47.000    25249854.561   101670695.454       -1904.911          42.000  
S29  37807629.301   198680425.533        -304.067          45.000  
E29  25167937.771   132258403.316       -1071.463          37.000    25167937.476   101340854.463        -821.076          34.000  
E19  25453877.659   133761122.619         266.979          32.000    25453886.853                         204.162          27.000  
C16  37543259.301   195497595.026         166.542          40.000    37543248.667   151171099.508         129.402          40.000  
C27  24775300.152   129011486.164       -2284.753          43.000                                                                  
C09  38441596.116   200175471.347         468.947          43.000    38441581.553   154788316.538         362.437          40.000  
C25  23911494.086   124513431.568       -1241.264          45.000                                                                  
C10  40766350.306   212281106.698       -1255.199          30.000    40766342.894   164149164.2652       -968.606          30.000  
R22  22625122.886                         846.890          31.000    22625113.921                         655.902          28.000  
R06  22228100.963   118613405.5703       -328.854          29.000                                                                  
G32  24468442.119   128582530.9903        915.667          30.000    24468437.614   100194184.988         714.284          29.000  
J02  38082996.418                        -289.816          28.000    38082982.127   155943463.611        -224.410          34.000  
E21  28462550.469                        1841.903          18.000                                                                  
J07  37403057.525   196554391.803        -301.970          39.000    37403054.916   153159259.569        -235.344          43.000  
J03  36877989.972   193795137.065        -213.302          44.000    36877988.709   151009198.625        -165.725          41.000  
G10  24370313.722                        2492.566          25.000    24370313.509                        1942.326          26.000  
G25                                                                  24406032.320    99938642.213        2019.563          30.000  
G12                                                                  24428412.519   100030208.255        1390.068          34.000  
J04                                                                  40291743.266   164987950.762         117.189          37.000  
> 2025 10 27 01 32 25.0030000  0 36                     
S37  37403111.254   196554673.439        -303.271          43.000  
G18  21824464.536   114688327.007       -1979.993          47.000    21824462.265    89367494.240       -1543.036          42.000  
G23  21537765.077   113181718.306        1162.214          37.000    21537763.313    88193539.8431        905.174          34.000  
S28  38225890.322   200878392.710        -301.418          47.000  
C38  37164403.145   193524800.297         330.689          39.000                                                                  
C39  36934344.305   192326828.414          -1.306          44.000                                                                  
C13  37928681.333   197504594.351         590.511          36.000    37928669.756   152723040.642         456.617          32.000  
C32  25120333.556   130808168.8643        984.171          35.000                                                                  
C41  24214161.989                        -423.430          26.000                                                                  
C08  37692329.233   196273889.097         554.261          33.000    37692311.038   151771321.067         428.901          33.000  
R16  21925862.154   117124019.684        -772.664          39.000    21925860.509    91096451.606        -601.465          35.000  
R09  21714960.993   115956686.214        2706.879          45.000    21714959.187    90188550.278        2105.298          40.000  
R07  23029276.116   123277517.4943        719.884          39.000    23029273.307    95882501.4383        557.981          27.000  
R21  21970960.620   117571056.324       -3174.804          48.000    21970957.562    91444164.661       -2469.248          40.000  
R20  24533447.748   131191370.3232      -4417.702          26.000    24533473.272                       -3438.941          24.000  
E33  24707307.001   129837810.975          41.795          37.000    24707305.595    99486081.2571         32.919          36.000  
E26  25250328.205   132691364.813       -2487.530          45.000    25250328.012   101672601.157       -1905.847          43.000  
S29  37807687.079   198680729.447        -303.825          46.000  
E29  25168141.657   132259473.421       -1069.264          37.000    25168141.528   101341674.383        -818.883          35.000  
E19  25453839.797   133760855.161         268.318          35.000    25453834.885   102492045.0751        205.313          28.000  
C16  37543227.355   195497428.668         166.215          44.000    37543216.758   151170970.882         128.379          41.000  
C27  24775738.644   129013771.342       -2285.626          42.000                                                                  
C09  38441506.075   200175003.352         467.409          41.000    38441491.781   154787954.699         361.558          40.000  
C25  23911732.478   124514673.488       -1241.214          37.000                                                                  
C10  40766591.053   212282360.861       -1254.194          34.000    40766584.363   164150134.0532       -969.245          34.000  
R22  22624966.092   120773604.8253        842.629          40.000    22624955.461                         653.651          27.000  
R06  22228164.754                        -325.237          28.000                                                                  
G12  24428065.621   128370350.9183       1782.095          37.000    24428072.767   100028818.447        1389.747          27.000  
G32  24468268.666   128581619.0883        919.815          31.000    24468275.056   100193495.5161        717.627          35.000  
J02  38083031.497   200127681.1833       -291.427          36.000    38083043.826   155943697.4401       -227.927          36.000  
J07  37403115.135   196554694.711        -303.120          39.000    37403112.575   153159495.614        -236.084          45.000  
J03  36878030.696   193795351.334        -214.629          40.000    36878029.504   151009365.676        -167.354          43.000  
G10  24369835.739   128064350.9563       2495.847          34.000    24369836.715    99790406.8201       1945.336          25.000  
G25                                                                  24405539.929                        2018.385          25.000  
G24                                                                  21728471.707    88974436.660       -1955.867          29.000  
J04                                                                  40291714.333   164987832.559         118.759          41.000  
> 2025 10 27 01 32 26.0030000  0 36                     
S37  37403169.046   196554976.875        -303.296          43.000  
G18  21824841.362   114690307.420       -1980.731          45.000    21824839.044    89369037.437       -1543.903          42.000  
G23  21537543.928   113180556.072        1162.230          38.000    21537539.455    88192634.206         905.681          36.000  
S28  38225947.683   200878693.982        -301.579          45.000  
C38  37164339.679   193524469.552         331.052          42.000                                                                  
C39  36934344.602   192326830.014          -1.689          43.000                                                                  
C13  37928568.015   197504003.968         590.147          36.000    37928556.484   152722584.110         456.291          31.000  
C32  25120144.123   130807183.6702        985.385          35.000                                                                  
C41  24214244.574                        -419.618          24.000                                                                  
C08  37692222.682   196273334.412         555.552          33.000    37692204.686   151770892.111         428.502          36.000  
R16  21926007.093   117124793.518        -773.295          46.000    21926005.356    91097053.307        -601.350          40.000  
R09  21714454.310   115953979.863        2706.915          44.000    21714452.450    90186445.313        2105.072          43.000  
R07  23029145.166   123276798.0852        718.899          30.000    23029140.691    95881941.7412        561.111          28.000  
R21  21971553.944   117574231.402       -3175.928          45.000    21971550.948    91446634.180       -2469.939          34.000  
R20  24534264.529   131195787.5262      -4417.529          32.000    24534296.765                       -3434.847          21.000  
E33  24707298.449   129837768.373          42.555          37.000    24707297.848    99486048.582          32.450          36.000  
E26  25250801.682   132693852.987       -2488.194          44.000    25250801.207   101674507.609       -1906.852          42.000  
G25  24405039.046   128249344.9363       2592.033          32.000    24405045.146                        2022.067          25.000  
S29  37807744.985   198681033.451        -304.281          44.000  
E29  25168345.134   132260542.788       -1069.129          37.000    25168344.888   101342493.726        -819.081          32.000  
E19  25453778.491   133760586.860         268.685          27.000    25453785.793   102491847.4831        205.471          28.000  
C16  37543195.431   195497262.727         165.579          42.000    37543184.943   151170842.563         128.169          41.000  
C27  24776177.293   129016056.802       -2285.980          41.000                                                                  
C09  38441416.492   200174536.061         467.152          43.000    38441402.059   154787593.313         361.470          39.000  
C25  23911971.032   124515915.304       -1241.057          44.000                                                                  
C10  40766832.141   212283615.882       -1255.473          33.000    40766824.290   164151107.5763       -970.688          25.000  
R22  22624813.392   120772762.2792        842.915          43.000    22624800.355                         649.176          26.000  
R06  22228223.679                        -317.207          17.000                                                                  
G12  24427724.712   128368568.3762       1782.600          39.000    24427733.366   100027429.428        1389.540          36.000  
G32  24468090.949   128580685.5882        920.039          27.000    24468082.509   100192778.325         719.414          30.000  
J02  38083083.147   200127973.3222       -291.805          38.000    38083099.254   155943925.121        -227.394          38.000  
E21  28461842.222                        1838.806          21.000                                                                  
J07  37403172.873   196554998.164        -303.364          39.000    37403170.315   153159732.077        -236.412          44.000  
J03  36878071.668   193795566.673        -215.563          36.000    36878070.457   151009533.447        -168.168          41.000  
G10  24369362.806   128061854.2672       2496.630          35.000    24369359.899                        1943.637          31.000  
J04                                                                  40291685.244   164987713.890         118.873          37.000  
> 2025 10 27 01 32 27.0030000  0 37                     
G24  21729437.473   114188963.7353      -2510.730          27.000    21729426.141                       -1951.465          18.000  
S37  37403226.637   196555279.494        -301.282          45.000  
G18  21825218.240   114692288.029       -1980.585          45.000    21825216.011    89370580.788       -1543.597          41.000  
G23  21537322.940   113179394.370        1161.061          39.000    21537320.085    88191728.961         905.321          39.000  
S28  38226004.894   200878995.060        -300.597          44.000  
C38  37164276.321   193524138.896         330.744          42.000                                                                  
C39  36934344.910   192326831.600          -0.883          44.000                                                                  
C13  37928454.814   197503413.770         589.636          34.000    37928443.331   152722127.727         456.784          34.000  
C32  25119958.218   130806213.9083        981.464          34.000                                                                  
C41  24214322.960                        -420.618          24.000                                                                  
C08  37692116.227   196272780.099         554.298          38.000    37692098.351   151770463.435         428.382          37.000  
R16  21926152.120   117125567.917        -773.802          45.000    21926150.445    91097655.600        -602.046          40.000  
R09  21713947.397   115951272.750        2708.667          43.000    21713945.437    90184339.781        2106.726          42.000  
R07  23029011.740   123276080.064         713.429          33.000    23029007.963                         557.713          32.000  
R21  21972147.387   117577406.570       -3175.305          49.000    21972144.226    91449103.749       -2469.634          36.000  
R20  24535085.969   131200203.7661      -4418.563          26.000    24535119.768                       -3435.604          22.000  
E33  24707290.092   129837727.045          39.019          35.000    24707289.429    99486016.923          30.891          32.000  
E26  25251274.637   132696340.327       -2486.471          46.000    25251274.607   101676413.561       -1905.868          41.000  
G25  24404543.984   128246751.4572       2590.427          29.000    24404549.500                        2022.088          26.000  
S29  37807802.744   198681337.224        -303.800          44.000  
E29  25168548.402   132261612.283       -1070.536          37.000    25168548.232   101343313.269        -820.178          35.000  
E19  25453738.893   133760319.597         265.889          34.000    25453732.997   102491642.765         202.316          28.000  
C16  37543163.299   195497096.540         167.657          41.000    37543153.104   151170714.049         129.102          39.000  
C27  24776616.464   129018342.064       -2285.315          44.000                                                                  
C09  38441326.596   200174068.098         468.492          43.000    38441312.261   154787231.534         362.522          40.000  
C25  23912209.607   124517157.500       -1241.337          43.000                                                                  
C10  40767072.776   212284869.333       -1251.279          33.000    40767063.601   164152076.5131       -969.771          31.000  
R22  22624653.260   120771935.4623        841.313          34.000    22624645.178    93933694.0653        650.247          25.000  
R06  22228287.431                        -331.776          20.000                                                                  
G12  24427386.071   128366784.7772       1783.601          35.000    24427393.442   100026039.578        1390.697          36.000  
G32  24467919.792   128579765.6922        920.300          28.000    24467917.026   100192029.8421        716.188          34.000  
J02  38083139.515                        -278.024          35.000    38083150.573   155944151.698        -225.224          37.000  
E21  28461488.685                        1840.043          21.000                                                                  
J07  37403230.499   196555300.747        -300.881          39.000    37403227.903   153159967.866        -235.179          42.000  
J03  36878112.469   193795780.849        -211.908          43.000    36878111.224   151009700.367        -166.315          43.000  
G10  24368883.843   128059359.4272       2488.818          31.000    24368886.169    99786514.9861       1945.124          30.000  
J04                                                                  40291656.157   164987595.185         118.922          38.000  
> 2025 10 27 01 32 28.0030000  0 36                     
G24  21729909.766   114191445.9302      -2511.487          32.000    21729903.835                       -1951.882          23.000  
S37  37403284.002   196555580.979        -301.825          44.000  
G18  21825595.320   114694269.263       -1982.196          39.000    21825593.002    89372124.587       -1544.556          37.000  
G23  21537101.828   113178232.711        1160.117          44.000    21537097.618    88190823.799         904.213          40.000  
S28  38226062.470                1       -296.289          38.000  
C38  37164212.669   193523807.569         330.287          47.000                                                                  
C39  36934345.104   192326832.912          -1.961          40.000                                                                  
C13  37928341.419   197502823.670         588.511          41.000    37928330.174   152721671.498         454.169          35.000  
C32  25119767.935   130805222.6403        981.845          34.000                                                                  
C41  24214406.135   126090766.1693       -424.148          31.000                                                                  
C08  37692009.619   196272225.273         553.309          40.000    37691991.874   151770034.422         428.141          37.000  
R16  21926296.928   117126341.496        -774.773          45.000    21926295.345    91098257.230        -602.322          44.000  
R09  21713440.259   115948564.584        2706.958          49.000    21713438.251    90182233.332        2106.891          40.000  
R07  23028879.203   123275392.8653        714.066          32.000    23028872.714    95880833.7743        557.438          25.000  
R21  21972741.024   117580583.078       -3176.598          40.000    21972737.835    91451574.319       -2470.891          36.000  
R20  24535912.956                       -4414.482          26.000    24535943.538                       -3440.578          22.000  
E33  24707282.599   129837686.417          40.651          36.000    24707281.895    99485985.755          30.914          33.000  
E26  25251747.927   132698827.422       -2487.296          47.000    25251747.792   101678319.196       -1905.595          39.000  
G25  24404047.319   128244134.1723       2594.121          34.000    24404054.483    99930522.6831       2022.813          32.000  
E29  25168752.268   132262681.977       -1071.010          42.000    25168751.838   101344132.874        -820.485          39.000  
E19  25453688.372                         264.134          21.000                                                                  
C16  37543131.278   195496930.073         165.455          40.000    37543121.142   151170585.354         127.807          35.000  
C27  24777055.673   129020628.610       -2286.902          32.000                                                                  
C09  38441236.837   200173600.334         467.430          43.000    38441222.462   154786869.782         361.150          33.000  
C25  23912447.905   124518398.636       -1242.354          46.000                                                                  
C10  40767313.683   212286123.382       -1253.862          36.000    40767304.253                1       -978.305          26.000  
R22  22624492.242                         836.152          38.000    22624488.006    93933041.1473        651.268          25.000  
R06  22228347.253                        -327.252          29.000                                                                  
G32  24467754.043                         918.268          35.000    24467754.470                         720.966          24.000  
J02  38083201.012                        -287.109          36.000    38083203.212   155944376.416        -220.944          33.000  
E21  28461139.978                        1850.943          21.000                                                                  
J07  37403287.921   196555602.244        -301.711          41.000    37403285.274   153160202.777        -235.626          41.000  
J03  36878153.034   193795994.057        -212.769          46.000    36878151.772   151009866.413        -166.053          39.000  
G10  24368411.823                        2495.024          27.000    24368409.896                        1942.679          30.000  
G12                                                                  24427053.345   100024648.215        1390.442          34.000  
J04                                                                  40291626.938   164987475.617         118.422          43.000  
> 2025 10 27 01 32 29.0030000  0 36                     
G24  21730384.147   114193939.1303      -2508.607          25.000    21730385.997    88982297.2191      -1956.268          31.000  
S37  37403341.387   196555882.937        -303.613          43.000  
G18  21825972.517   114696251.606       -1979.359          30.000    21825970.415    89373669.314       -1546.252          33.000  
G23  21536880.779   113177071.138        1160.765          48.000    21536877.858    88189918.688         904.347          45.000  
C38  37164149.057   193523475.945         330.395          48.000                                                                  
C39  36934345.518   192326834.667          -2.125          43.000                                                                  
C13  37928227.936   197502233.292         589.810          47.000    37928216.944   152721214.875         456.342          39.000  
C32  25119580.030   130804238.8242        982.628          42.000                                                                  
C41  24214487.677   126091188.6282       -423.246          35.000                                                                  
C08  37691903.242   196271670.087         554.779          48.000    37691885.298   151769605.096         428.732          41.000  
R16  21926441.811   117127115.631        -775.799          40.000    21926440.216    91098859.328        -602.329          38.000  
R09  21712933.384   115945857.386        2705.127          45.000    21712931.329    90180127.757        2104.126          35.000  
R07  23028743.230   123274664.6302        717.207          40.000    23028737.046    95880269.1042        557.295          37.000  
R21  21973335.610                       -3179.504          29.000    21973331.997                       -2469.403          30.000  
R20  24536743.458                1      -4420.920          27.000    24536769.985                       -3441.480          21.000  
E33  24707275.298   129837646.070          39.270          36.000    24707275.409    99485955.056          29.819          34.000  
E26  25252221.477   132701315.447       -2489.051          43.000    25252221.212   101680225.505       -1907.711          32.000  
G25  24403554.591   128241539.4662       2592.437          34.000    24403567.508    99928500.930        2020.614          27.000  
E29  25168955.937   132263751.472       -1069.904          47.000    25168955.481   101344952.352        -819.842          42.000  
C16  37543099.517   195496764.263         165.152          40.000    37543089.104   151170456.769         130.802          31.000  
C27  24777494.865   129022916.125       -2284.833          28.000                                                                  
C09  38441147.128   200173133.356         466.802          34.000    38441132.662   154786508.402         361.573          28.000  
C25  23912686.322   124519640.039       -1242.366          40.000                                                                  
C10  40767555.699                       -1252.945          21.000    40767551.150                        -966.351          24.000  
R22  22624340.253                         836.798          35.000    22624332.936    93932397.1332        651.320          36.000  
R06  22228405.111   118615045.3253       -325.703          34.000                                                                  
E27  27865659.723   146435029.7001       1245.720          28.000                                                                  
G32  24467595.537   128578081.9783        910.515          31.000    24467589.819                         717.847          31.000  
J02  38083260.318   200128883.4803       -289.320          38.000    38083258.368   155944601.702        -224.969          30.000  
E21  28460787.465                        1847.012          22.000                                                                  
J07  37403345.377   196555904.213        -303.832          39.000    37403342.801   153160438.057        -236.844          38.000  
J03  36878193.800   193796208.016        -215.167          45.000    36878192.484   151010033.226        -168.797          35.000  
G10  24367935.046   128054362.8003       2494.826          45.000    24367935.531    99782621.5511       1944.902          36.000  
E19                                                                  25453633.610   102491235.0081        203.795          28.000  
G12                                                                  24426713.770                        1384.372          22.000  
J04                                                                  40291597.740   164987355.738         119.309          41.000  
> 2025 10 27 01 32 30.0030000  0 38                     
S37  37403398.888   196556185.262        -302.930          39.000  
G18  21826349.939   114698235.200       -1984.595          38.000    21826345.681                       -1547.168          33.000  
G23  21536659.593   113175909.079        1161.807          47.000    21536657.633    88189013.137         905.264          44.000  
S28  38226192.582                        -307.047          33.000  
C38  37164085.311   193523143.909         331.684          47.000                                                                  
C39  36934345.908   192326836.673          -2.807          42.000                                                                  
C13  37928114.330   197501641.968         591.348          46.000    37928103.536   152720757.595         457.397          41.000  
C32  25119391.615   130803254.1682        984.811          44.000                                                                  
C41  24214567.203   126091610.3882       -422.066          32.000                                                                  
C08  37691796.498   196271114.161         555.709          45.000    37691778.600   151769175.213         429.692          42.000  
R16  21926586.868   117127890.154        -775.244          39.000    21926585.155    91099461.729        -602.538          38.000  
R09  21712426.662   115943151.219        2704.401          47.000    21712424.663    90178023.012        2102.179          32.000  
R07  23028605.400   123273945.8672        719.648          44.000    23028602.740    95879709.5522        562.574          27.000  
R21  21973933.105                       -3182.421          32.000    21973932.275                       -2472.092          33.000  
R20  24537574.122   131213435.7843      -4417.967          25.000    24537596.950                       -3436.589          22.000  
E33  24707267.745   129837606.114          38.870          40.000    24707267.104    99485926.2661         29.868          33.000  
E26  25252695.036   132703804.516       -2490.241          39.000    25252694.715   101682132.519       -1907.761          30.000  
G25  24403059.875   128238945.7152       2591.261          34.000    24403075.711                        2017.068          25.000  
E29  25169159.292   132264820.130       -1068.615          48.000    25169158.888   101345771.138        -818.691          44.000  
E19  25453603.157                         269.827          28.000    25453581.438                         204.978          25.000  
C16  37543067.859   195496598.895         164.183          42.000    37543057.318   151170329.138         127.704          32.000  
C27  24777935.362   129025211.2373      -2285.846          32.000                                                                  
C09  38441057.784                1        461.517          27.000    38441044.347                1        365.660          26.000  
C25  23912924.689   124520881.417       -1241.896          39.000                                                                  
R22  22624178.363   120769426.0923        836.546          43.000    22624174.349    93931745.1952        653.849          34.000  
R06  22228463.659   118615369.8492       -323.802          37.000                                                                  
E27  27865411.653   146433783.268        1247.812          26.000                                                                  
G12  24426367.985   128361429.1983       1781.964          34.000    24426373.614                        1405.236          20.000  
G32  24467418.358                         918.292          33.000    24467417.810                         718.668          30.000  
J02  38083308.842   200129138.2353       -292.075          33.000    38083312.887                        -225.513          25.000  
G15  23988037.788   126057988.8523      -2341.041          35.000                                                                  
E21  28460439.087                        1850.587          21.000                                                                  
J07  37403403.022   196556206.550        -303.466          36.000    37403400.463                        -235.937          23.000  
J03  36878234.682   193796422.858        -216.717          43.000    36878233.340   151010200.370        -168.445          33.000  
G10  24367460.558   128051866.7782       2496.022          47.000    24367463.216    99780676.743        1945.295          36.000  
C10                                                                  40767794.463                        -968.231          21.000  
G24                                                                  21730864.894    88984253.075       -1955.505          30.000  
J04                                                                  40291568.352   164987235.504         119.910          39.000  
> 2025 10 27 01 32 31.0030000  0 39                     
E07  27772863.993   145947384.825       -1976.532          28.000                                                                  
S37  37403456.414   196556487.518        -302.850          42.000  
G18  21826727.681   114700219.292       -1984.973          35.000    21826724.286    89376782.9511      -1545.899          36.000  
G23  21536438.227   113174746.715        1161.505          47.000    21536435.551    88188107.432         905.325          45.000  
S28  38226240.420                        -306.494          30.000  
C38  37164021.354   193522811.279         331.548          47.000                                                                  
C39  36934346.300   192326838.732          -3.883          37.000                                                                  
C13  37928000.612   197501050.134         591.149          45.000    37927989.936   152720299.952         457.089          41.000  
C32  25119201.675   130802269.4082        984.741          44.000                                                                  
C41  24214651.078   126092031.2772       -420.136          29.000                                                                  
C08  37691689.631   196270557.598         555.930          45.000    37691671.755   151768744.814         429.882          43.000  
R16  21926731.920   117128664.547        -776.011          46.000    21926730.162    91100064.029        -603.871          40.000  
R09  21711920.079   115940445.579        2704.761          49.000    21711918.337    90175919.144        2103.308          35.000  
R07  23028472.583   123273226.4831        719.309          47.000    23028471.760    95879164.2893        558.957          32.000  
R21  21974532.251   117590160.1493      -3177.633          40.000    21974527.558    91458993.7973      -2471.866          29.000  
R20  24538406.320   131217885.6172      -4412.942          26.000    24538422.024                       -3437.986          22.000  
E33  24707260.379   129837566.841          39.309          39.000    24707257.428    99485886.9811         29.717          29.000  
E26  25253168.871   132706293.919       -2489.991          38.000    25253168.642   101684040.161       -1907.213          34.000  
G25  24402566.902   128236352.145        2592.433          39.000    24402587.639                        2022.076          24.000  
E29  25169362.718   132265888.297       -1068.821          47.000    25169362.166   101346589.598        -818.791          44.000  
E19  25453548.078   133759297.2621        271.179          28.000    25453531.309   102490822.5301        204.769          28.000  
C16  37543036.244   195496433.623         163.483          36.000    37543025.534   151170201.381         126.866          33.000  
C27  24778373.106   129027491.0492      -2289.569          32.000                                                                  
C09  38440969.842                         466.304          26.000    38440953.250                         362.203          24.000  
C25  23913163.043   124522122.332       -1242.746          42.000                                                                  
C10  40768042.041                       -1258.578          20.000    40768036.346                        -962.474          21.000  
R22  22624017.256                         838.564          43.000    22624017.240    93931094.0481        652.033          34.000  
R06  22228522.934   118615693.494        -323.384          36.000                                                                  
E27  27865183.674                        1249.581          24.000                                                                  
G12  24426027.110   128359644.6042       1783.563          38.000    24426034.047                        1392.754          21.000  
G32  24467237.509   128576200.2833        914.696          33.000    24467246.636                         715.757          33.000  
J02  38083362.812   200129421.5512       -291.429          32.000    38083372.587   155945025.7221       -226.502          35.000  
G15  23988480.203   126060329.8422      -2339.077          31.000                                                                  
E21  28460086.549                        1850.746          21.000                                                                  
J07  37403460.559   196556508.800        -302.775          36.000    37403459.363   153160913.1071       -236.135          37.000  
J03  36878275.614   193796637.743        -215.128          46.000    36878274.430   151010367.921        -167.467          36.000  
G10  24366986.013   128049369.9611       2496.759          45.000    24366987.950    99778731.580        1945.299          34.000  
G24                                                                  21731343.227    88986208.922       -1957.481          29.000  
J04                                                                  40291538.835   164987114.620         120.121          44.000  
> 2025 10 27 01 32 32.0030000  0 37                     
G24  21731816.915   114201468.4232      -2510.059          30.000    21731819.393    88988164.024       -1955.553          29.000  
E07  27773227.776   145949362.225       -1979.041          26.000                                                                  
S37  37403513.856   196556789.531        -302.502          42.000  
G18  21827105.494   114702204.042       -1984.613          35.000    21827102.721    89378329.173       -1546.631          40.000  
G23  21536216.916   113173583.539        1162.049          45.000    21536213.904    88187201.052         905.610          45.000  
S28  38226294.856   200880535.2353       -303.078          38.000  
C38  37163957.282   193522477.631         332.911          46.000                                                                  
C39  36934346.512   192326840.348          -2.487          43.000                                                                  
C13  37927886.666   197500457.066         591.763          46.000    37927876.131   152719841.388         457.802          40.000  
C32  25119012.251   130801283.7922        984.245          45.000                                                                  
C08  37691582.508   196269999.813         556.709          44.000    37691564.730   151768313.556         430.677          42.000  
R16  21926876.945   117129438.909        -775.660          45.000    21926875.261    91100666.282        -602.626          42.000  
R09  21711413.581   115937740.638        2704.828          51.000    21711411.690    90173815.124        2104.254          46.000  
R07  23028337.932   123272506.663         718.199          46.000    23028334.072    95878604.4842        559.512          41.000  
R21  21975124.061   117593340.1332      -3181.110          32.000    21975119.403    91461467.5062      -2477.295          26.000  
R20  24539238.290                       -4414.007          26.000    24539248.562                       -3428.724          23.000  
E33  24707252.656   129837527.257          37.987          42.000    24707252.232    99485856.790          29.486          38.000  
E26  25253642.713   132708783.864       -2490.076          37.000    25253642.487   101685948.032       -1907.689          36.000  
G25  24402073.324   128233759.258        2593.265          41.000    24402079.688    99922436.3131       2020.548          39.000  
E29  25169565.432   132266955.298       -1068.077          46.000    25169565.420   101347407.197        -818.417          44.000  
E19  25453479.133   133758934.741         264.611          37.000    25453480.773   102490618.615         203.099          30.000  
C16  37543004.350   195496268.089         164.950          40.000    37542993.598   151170073.337         127.833          38.000  
C27  24778813.685   129029779.8092      -2288.220          35.000                                                                  
C09  38440882.305   200171761.4153        465.013          26.000    38440862.654   154785424.5043        359.464          31.000  
C25  23913401.343   124523362.971       -1241.724          43.000                                                                  
R22  22623858.633   120767703.5203        834.928          44.000    22623862.416    93930444.1223        651.129          34.000  
R06  22228584.843   118616015.806        -324.349          35.000                                                                  
E27  27864943.503                        1246.515          22.000                                                                  
G12  24425690.689   128357860.508        1784.209          35.000    24425695.083   100019137.9481       1389.958          29.000  
G32  24467047.079                         917.940          35.000    24467049.096   100188475.3211        713.247          36.000  
J02  38083417.942   200129712.0103       -290.588          42.000    38083425.062   155945258.9941       -225.237          43.000  
E21  28459734.985                        1857.370          22.000                                                                  
J07  37403517.965   196556810.797        -302.101          38.000    37403515.806   153161148.452        -235.386          39.000  
J03  36878316.494   193796853.058        -215.411          45.000    36878315.454   151010535.663        -167.500          43.000  
G10  24366510.534   128046872.694        2495.963          43.000    24366510.134    99776785.531        1945.367          40.000  
C10                                                                  40768274.132                        -971.640          23.000  
J04                                                                  40291508.986   164986993.019         121.238          43.000  
> 2025 10 27 01 32 33.0030000  0 35                     
G24  21732294.396   114203979.3292      -2511.731          31.000    21732300.128                       -1960.825          26.000  
S37  37403571.518   196557092.208        -302.698          41.000  
G18  21827483.329   114704190.041       -1986.713          32.000    21827480.858    89379876.531       -1545.935          39.000  
G23  21535995.844   113172421.752        1161.396          45.000    21535992.749    88186295.767         905.208          44.000  
S28  38226352.812   200880838.7252       -301.612          33.000  
C38  37163893.490   193522145.155         331.936          46.000                                                                  
C39  36934347.065   192326843.069          -2.525          42.000                                                                  
C13  37927772.867   197499865.039         591.929          43.000    37927762.524   152719383.618         457.706          41.000  
C32  25118823.933   130800298.772         984.918          40.000                                                                  
C08  37691475.515   196269443.218         555.810          41.000    37691457.918   151767883.167         430.180          40.000  
R16  21927022.199   117130215.003        -777.392          44.000    21927020.473    91101270.008        -604.998          42.000  
R09  21710907.035   115935036.491        2704.505          50.000    21710905.263    90171683.9533       2103.302          44.000  
R07  23028203.411   123271787.406         720.533          40.000    23028200.812    95878044.5791        559.625          34.000  
R21  21975719.395                       -3174.565          19.000    21975711.528    91463921.6983      -2474.445          30.000  
R20  24540070.484   131226784.5483      -4411.015          34.000    24540074.828                       -3430.869          22.000  
E33  24707245.264   129837489.040          38.413          45.000    24707245.268    99485827.511          29.285          40.000  
E26  25254116.576   132711274.547       -2490.530          40.000    25254116.383   101687856.592       -1908.212          37.000  
G25  24401580.028   128231166.379        2593.957          39.000    24401586.351    99920415.857        2021.127          38.000  
E29  25169768.677   132268023.373       -1068.705          45.000    25169768.706   101348225.629        -818.651          44.000  
E19  25453432.028   133758669.340         266.589          39.000    25453431.028   102490415.276         203.254          34.000  
C16  37542972.816   195496103.582         164.740          41.000    37542961.969   151169946.146         127.528          38.000  
C27  24779252.859   129032072.0013      -2288.281          32.000                                                                  
C09  38440793.827                         469.416          26.000    38440773.228   154785063.9802        358.971          31.000  
C25  23913639.955   124524605.050       -1243.440          40.000                                                                  
C10  40768523.233                       -1257.114          28.000    40768513.137   164157907.8783       -970.429          26.000  
R22  22623709.895   120766899.5453        845.294          36.000    22623704.925    93929790.2402        652.132          30.000  
R06  22228645.097   118616339.152        -324.167          36.000                                                                  
G12  24425353.214                        1782.583          26.000    24425353.252   100017748.176        1389.679          24.000  
G32  24466865.513   128574245.4923        917.913          40.000    24466864.224   100187760.671         716.011          38.000  
J02  38083473.092   200130001.5762       -290.573          40.000    38083478.671   155945485.401        -225.758          41.000  
E21  28459384.727                        1841.526          21.000                                                                  
J07  37403575.701   196557113.505        -303.232          36.000    37403573.624   153161384.376        -236.322          41.000  
J03  36878357.560   193797068.863        -214.633          45.000    36878356.507   151010703.833        -168.050          41.000  
G10  24366034.167   128044376.070        2497.391          37.000    24366035.848    99774840.232        1944.756          32.000  
J04                                                                  40291479.427   164986872.086         120.387          43.000  
> 2025 10 27 01 32 34.0030000  0 35                     
G24  21732773.773   114206490.8542      -2512.599          25.000    21732781.597                       -1954.886          23.000  
S37  37403628.956   196557394.283        -302.075          39.000  
G18  21827860.989   114706174.612       -1986.371          35.000    21827856.891    89381423.000       -1546.313          41.000  
G23  21535774.710   113171259.582        1163.390          44.000    21535771.507    88185390.143         906.620          41.000  
S28  38226410.402   200881142.3273       -299.571          38.000  
C38  37163829.589   193521812.441         332.801          42.000                                                                  
C39  36934347.474   192326844.724          -0.589          43.000                                                                  
C13  37927658.978   197499272.274         593.794          43.000    37927648.774   152718925.242         459.513          40.000  
C32  25118632.863   130799312.312         987.965          45.000                                                                  
C08  37691368.723   196268886.219         557.633          42.000    37691350.965   151767452.468         431.696          41.000  
R16  21927167.786   117130992.563        -777.188          49.000    21927165.920    91101874.735        -604.468          42.000  
R09  21710400.730   115932332.292        2702.856          45.000    21710398.773    90169580.8072       2098.590          30.000  
R07  23028068.907   123271066.666         722.789          49.000    23028064.094    95877483.945         562.669          42.000  
R21  21976307.364   117599659.5203      -3180.515          34.000    21976306.638    91466398.9203      -2472.975          29.000  
R20  24540898.823                       -4419.493          20.000    24540901.997                       -3437.381          24.000  
E33  24707238.017   129837449.534          39.732          45.000    24707237.198    99485797.194          31.162          44.000  
E26  25254590.661   132713764.632       -2490.251          37.000    25254590.287   101689764.356       -1907.518          30.000  
G25  24401086.489   128228572.693        2592.359          33.000    24401090.320    99918394.693        2021.001          32.000  
E29  25169972.137   132269090.668       -1065.438          44.000    25169971.622   101349043.451        -816.951          42.000  
E19  25453380.267   133758402.029         267.993          42.000    25453379.745   102490210.497         205.334          38.000  
C16  37542941.090   195495937.931         164.866          42.000    37542930.171   151169818.024         127.562          39.000  
C27  24779710.716                       -2287.922          32.000                                                                  
C09  38440705.434                         461.721          31.000    38440685.084   154784703.3162        360.234          26.000  
C25  23913878.609   124525848.106       -1242.867          46.000                                                                  
C10  40768764.622                       -1257.460          26.000    40768755.348   164158877.7092       -965.963          26.000  
R22  22623553.966   120766063.2502        834.863          40.000    22623545.397    93929139.9962        650.602          37.000  
R06  22228704.813   118616662.489        -320.479          38.000                                                                  
G12  24425017.089   128354330.1523       1785.315          26.000    24425013.019                        1385.737          23.000  
G32  24466684.584   128573295.1092        920.448          46.000    24466691.328   100187044.257         718.293          43.000  
J02  38083529.297   200130297.0363       -292.853          36.000    38083535.400   155945711.551        -226.628          35.000  
E21  28459035.925                        1851.062          22.000                                                                  
J07  37403633.168   196557415.567        -302.386          35.000    37403630.954   153161619.663        -236.127          38.000  
J03  36878398.550   193797283.933        -216.966          39.000    36878397.450   151010871.299        -166.883          33.000  
G10  24365559.868   128041880.6863       2499.923          44.000    24365559.536    99772893.685        1948.506          41.000  
J04                                                                  40291449.796   164986750.962         121.841          42.000  
> 2025 10 27 01 32 35.0030000  0 38                     
G24  21733252.309                       -2514.297          26.000    21733261.638                       -1973.810          20.000  
E07  27774359.556   145955244.3131      -1979.421          26.000                                                                  
S37  37403686.534   196557696.915        -301.581          40.000  
G18  21828238.805   114708160.381       -1986.121          41.000    21828234.954    89382970.377       -1546.985          42.000  
G23  21535553.511   113170097.789        1162.747          43.000    21535550.518    88184484.913         906.042          45.000  
S28  38226467.739   200881444.3232       -301.768          43.000  
C38  37163765.781   193521479.916         333.541          45.000                                                                  
C39  36934347.937   192326847.075          -1.718          40.000                                                                  
C13  37927545.141   197498679.378         593.675          42.000    37927535.008   152718466.748         458.981          41.000  
C32  25118443.623   130798325.388         986.515          43.000                                                                  
C41  24214978.679   126093747.9133       -420.567          30.000                                                                  
C08  37691261.833   196268329.131         558.294          41.000    37691244.057   151767021.736         431.266          45.000  
R16  21927313.353   117131770.804        -778.426          49.000    21927311.560    91102479.999        -604.495          43.000  
R09  21709894.394   115929629.398        2703.687          49.000    21709892.333    90167477.9461       2103.210          41.000  
R07  23027933.838   123270345.222         721.779          41.000    23027929.082    95876922.858         562.327          39.000  
R21  21976900.658   117602834.2892      -3181.712          43.000    21976896.735    91468854.5402      -2473.635          33.000  
R20  24541727.309   131235644.4163      -4411.635          30.000    24541726.683                       -3431.695          25.000  
E33  24707230.258   129837410.931          39.045          46.000    24707229.911    99485767.595          29.496          45.000  
E26  25255065.000   132716255.482       -2489.785          42.000    25255064.209   101691678.1091      -1907.805          42.000  
G25  24400593.092   128225979.780        2593.989          42.000    24400601.706    99916374.378        2020.825          38.000  
E29  25170175.106   132270158.075       -1067.381          44.000    25170174.856   101349861.236        -817.233          44.000  
E19  25453332.231   133758135.061         267.701          38.000    25453329.976   102490005.960         204.582          36.000  
C16  37542909.293   195495772.993         165.355          41.000    37542898.536   151169690.560         127.787          39.000  
C27  24780133.571   129036657.6663      -2288.586          42.000                                                                  
C09  38440609.372   200170339.8143        465.662          39.000    38440594.382   154784343.1902        361.057          39.000  
C25  23914117.284   124527091.549       -1243.072          47.000                                                                  
C10  40769004.953                       -1254.201          31.000    40768996.209   164159853.4803       -970.352          32.000  
R22  22623395.070   120765218.4363        835.962          43.000    22623388.560    93928489.857         650.011          38.000  
R06  22228765.604   118616985.296        -322.455          37.000                                                                  
G12  24424675.368                        1777.814          26.000    24424676.851                        1388.178          22.000  
G32  24466510.822   128572382.0353        919.148          43.000    24466532.312   100186358.9361        716.811          37.000  
J02  38083583.825   200130582.9363       -289.511          42.000    38083588.737   155945938.418        -226.666          39.000  
E21  28458687.465                        1840.389          22.000                                                                  
J07  37403690.652   196557718.193        -301.381          35.000    37403688.282   153161855.482        -235.074          41.000  
J03  36878439.719   193797499.963        -215.778          43.000    36878438.764   151011039.803        -167.815          40.000  
G10  24365085.540   128039382.1432       2498.367          43.000    24365084.548    99770946.744        1947.825          37.000  
E27                                                                  27864236.013                         953.459          23.000  
J04                                                                  40291420.339   164986629.875         121.949          46.000  
> 2025 10 27 01 32 36.0030000  0 35                     
G24  21733729.575                       -2514.534          26.000    21733742.981                       -1958.781          29.000  
S37  37403743.920   196557998.811        -301.440          39.000  
G18  21828616.788   114710146.574       -1989.233          36.000    21828615.512    89384518.101       -1549.615          39.000  
G23  21535332.463   113168936.185        1159.357          46.000    21535329.481    88183579.719         903.566          45.000  
S28  38226525.054   200881746.0752       -301.641          32.000  
C38  37163701.834   193521147.017         330.948          46.000                                                                  
C39  36934348.371   192326849.199          -4.063          41.000                                                                  
C13  37927431.271   197498086.511         590.855          42.000    37927421.186   152718008.343         456.871          41.000  
C32  25118254.083   130797338.936         984.865          43.000                                                                  
C08  37691154.818   196267772.012         555.446          44.000    37691137.117   151766590.853         429.458          43.000  
R16  21927459.092   117132549.316        -779.544          48.000    21927457.331    91103085.536        -607.427          42.000  
R09  21709388.024   115926925.845        2703.784          45.000    21709386.225    90165375.181        2102.222          32.000  
R07  23027799.204   123269624.456         718.489          40.000    23027794.696    95876362.187         558.722          40.000  
R21  21977494.703                       -3181.006          31.000    21977488.876    91471328.5512      -2475.968          27.000  
R20  24542552.960   131240059.0712      -4418.701          29.000    24542553.025                       -3444.566          24.000  
E33  24707222.752   129837372.727          36.426          47.000    24707222.481    99485738.298          27.783          43.000  
E26  25255538.174   132718746.044       -2489.604          34.000    25255538.694   101693586.461       -1908.924          36.000  
G25  24400099.591   128223385.796        2593.352          41.000    24400106.646    99914353.030        2020.611          36.000  
E29  25170378.203   132271225.387       -1069.110          45.000    25170377.872   101350679.095        -819.135          44.000  
E19  25453281.047   133757868.332         265.783          41.000    25453278.104   102489801.620         203.257          39.000  
C16  37542877.707   195495607.804         163.250          41.000    37542866.824   151169562.855         126.047          38.000  
C27  24780569.286   129038946.0812      -2290.808          33.000                                                                  
C09  38440520.351   200169873.9422        463.185          31.000    38440506.621   154783982.9912        358.160          37.000  
C25  23914356.013   124528334.985       -1244.554          46.000                                                                  
R22  22623237.773   120764383.5272        834.728          45.000    22623229.834    93927840.561         648.495          31.000  
R06  22228826.285   118617308.074        -324.255          37.000                                                                  
G32  24466335.868   128571462.4852        915.090          42.000    24466338.779   100185643.405         713.406          41.000  
J02  38083638.965   200130872.7072       -290.696          44.000    38083644.737   155946164.301        -226.480          43.000  
J07  37403747.985   196558020.124        -302.100          35.000    37403745.283   153162090.736        -236.085          40.000  
J03  36878480.628   193797715.034        -214.729          39.000    36878479.646   151011207.447        -167.771          30.000  
G10  24364609.391   128036884.2232       2496.254          44.000    24364609.250    99769000.393        1944.509          39.000  
C10                                                                  40769235.687   164160823.3852       -971.429          28.000  
E27                                                                  27863995.826                         953.536          25.000  
G12                                                                  24424339.771                        1385.079          23.000  
J04                                                                  40291390.725   164986508.375         120.266          44.000  
> 2025 10 27 01 32 37.0030000  0 37                     
G24  21734205.740   114214021.3773      -2511.243          31.000    21734220.362    88997998.8801      -1955.984          28.000  
S37  37403801.383   196558300.635        -301.007          36.000  
G18  21828994.772   114712141.0983      -1986.291          40.000    21828993.248    89386065.999       -1547.961          39.000  
G23  21535111.510   113167775.055        1162.134          46.000    21535108.499    88182674.961         905.457          43.000  
S28  38226582.275                        -299.463          27.000  
C38  37163637.996   193520814.372         333.638          47.000                                                                  
C39  36934348.743   192326851.653          -1.772          41.000                                                                  
C13  37927317.330   197497493.776         594.075          44.000    37927307.396   152717550.013         459.379          41.000  
C32  25118064.518   130796352.312         987.914          44.000                                                                  
C08  37691047.826   196267214.997         558.079          44.000    37691030.235   151766160.156         431.771          44.000  
R16  21927604.930   117133328.911        -779.052          48.000    21927603.320    91103691.824        -605.859          43.000  
R09  21708881.672   115924222.697        2703.131          47.000    21708879.969    90163272.778        2102.118          39.000  
R07  23027664.407   123268903.460         722.109          39.000    23027659.967    95875801.452         561.368          34.000  
R21  21978092.366   117609211.7463      -3180.676          40.000    21978081.922    91473787.2343      -2473.258          27.000  
R20  24543374.187                       -4421.070          20.000    24543378.156                       -3429.895          24.000  
E33  24707215.502   129837335.062          38.563          47.000    24707215.396    99485709.434          29.646          43.000  
E26  25256022.898                       -2490.257          24.000    25256012.467   101695495.044       -1908.430          33.000  
G25  24399605.933   128220791.502        2593.096          36.000    24399611.364    99912331.536        2021.613          35.000  
E29  25170581.160   132272292.977       -1066.171          47.000    25170580.981   101351497.129        -817.027          44.000  
E19  25453226.520   133757601.835         266.661          38.000    25453226.179   102489597.260         205.203          35.000  
C16  37542845.985   195495442.772         165.140          37.000    37542835.147   151169435.222         127.930          38.000  
C27  24781011.288   129041234.3662      -2287.311          33.000                                                                  
C09  38440432.990                         466.364          31.000    38440414.915   154783621.0463        359.507          31.000  
C25  23914594.940   124529579.108       -1243.457          47.000                                                                  
R22  22623081.111   120763549.4461        835.526          41.000    22623075.087    93927192.060         649.142          35.000  
R06  22228886.761   118617631.029        -321.711          36.000                                                                  
G12  24423995.755                        1783.573          26.000    24424003.093                        1391.103          28.000  
G32  24466164.727   128570562.5802        921.492          42.000    24466163.190   100184927.414         716.672          37.000  
J02  38083692.770   200131156.2082       -289.437          41.000    38083699.095   155946389.874        -224.909          42.000  
G15  23991166.814                       -2337.694          31.000                                                                  
E21  28457982.244                        1848.081          20.000                                                                  
J07  37403805.357   196558321.916        -301.208          33.000    37403803.262   153162325.995        -235.015          30.000  
J03  36878521.573   193797930.148        -214.418          35.000    36878520.708   151011374.984        -168.652          29.000  
G10  24364134.049   128034385.6171       2499.036          40.000    24364133.895    99767053.796        1948.017          35.000  
C10                                                                  40769474.038   164161793.0412       -971.051          29.000  
E27                                                                  27863756.450                         955.627          25.000  
J04                                                                  40291361.104   164986386.953         122.410          45.000  
> 2025 10 27 01 32 38.0030000  0 38                     
S37  37403858.591   196558601.110        -300.043          37.000  
G23  21534890.413   113166612.706        1162.031          47.000    21534887.286    88181769.237         905.847          46.000  
S28  38226639.323   200882345.0043       -300.396          33.000  
C38  37163573.834   193520480.270         334.183          46.000                                                                  
C39  36934348.984   192326852.763          -0.666          41.000                                                                  
C13  37927203.110   197496899.566         594.554          46.000    37927193.376   152717090.526         459.518          42.000  
C32  25117874.837   130795364.431         988.484          44.000                                                                  
C08  37690940.582   196266656.462         558.544          43.000    37690923.031   151765728.262         431.698          44.000  
R16  21927750.800   117134107.751        -779.478          47.000    21927749.069    91104297.601        -606.386          43.000  
R09  21708375.340   115921518.847        2703.491          47.000    21708373.607    90161169.735        2102.710          40.000  
R07  23027529.411   123268181.075         723.366          40.000    23027524.706    95875239.616         561.279          39.000  
R21  21978689.049   117612392.0112      -3178.823          35.000    21978673.648                       -2476.611          27.000  
R20  24544194.646                       -4412.654          21.000    24544201.720                       -3433.032          25.000  
E33  24707208.166   129837296.529          38.392          43.000    24707207.781    99485679.956          29.686          41.000  
E26  25256496.068                       -2496.981          24.000    25256486.356   101697402.610       -1905.958          28.000  
G25  24399112.121   128218196.065        2595.244          37.000    24399117.436    99910309.111        2022.073          35.000  
S29  37808438.394   198684683.8253       -302.386          36.000  
E29  25170784.257   132273359.119       -1065.833          49.000    25170783.911   101352314.014        -816.583          45.000  
E19  25453176.964   133757334.122         268.333          42.000    25453175.862   102489392.189         205.243          35.000  
C16  37542814.070   195495276.616         167.101          37.000    37542803.142   151169306.707         128.116          36.000  
C27  24781450.110   129043521.8882      -2288.135          35.000                                                                  
C09  38440342.901                         465.511          25.000    38440326.440   154783259.8872        361.743          26.000  
C25  23914833.642   124530822.259       -1243.815          46.000                                                                  
R22  22622924.165   120762715.025         834.076          45.000    22622919.590    93926543.126         648.326          37.000  
R06  22228946.912   118617952.409        -321.117          35.000                                                                  
G12  24423659.155                        1783.139          27.000    24423663.218                        1399.034          25.000  
G32  24465988.266   128569642.9232        922.284          46.000    24465991.336   100184143.7611        717.305          32.000  
J02  38083748.037   200131444.7542       -288.413          43.000    38083753.480   155946614.660        -225.659          40.000  
G15  23991600.982                       -2338.422          26.000                                                                  
E21  28457627.652                        1851.364          21.000                                                                  
J07  37403862.473   196558622.368        -300.144          34.000    37403860.640   153162560.079        -233.497          33.000  
J03  36878562.300   193798144.260        -214.879          38.000    36878561.441   151011541.669        -165.854          34.000  
G10  24363658.510   128031886.297        2500.877          41.000    24363658.299    99765106.229        1947.805          39.000  
C10                                                                  40769715.394   164162761.5962       -968.114          33.000  
E27                                                                  27863513.838                         956.116          24.000  
G18                                                                  21829370.978    89387613.564       -1548.370          38.000  
G24                                                                  21734699.605                       -1960.951          13.000  
J04                                                                  40291331.208   164986264.263         122.656          45.000  
> 2025 10 27 01 32 39.0030000  0 38                     
E07  27775854.292                       -1973.782          23.000                                                                  
S37  37403915.839   196558901.833        -300.659          36.000  
G18  21829750.542                       -1982.622          27.000    21829748.960    89389161.320       -1545.642          27.000  
G23  21534669.328   113165449.829        1161.921          46.000    21534666.028    88180863.082         905.430          46.000  
S28  38226696.099   200882643.3093       -304.043          27.000  
C38  37163509.631   193520145.811         333.871          46.000                                                                  
C39  36934349.284   192326853.872          -1.719          41.000                                                                  
C13  37927088.995   197496304.357         594.063          45.000    37927079.129   152716630.233         459.550          42.000  
C32  25117684.826   130794375.117         988.026          42.000                                                                  
C08  37690833.276   196266097.252         558.279          42.000    37690815.682   151765295.818         431.582          43.000  
R16  21927896.804   117134887.230        -780.429          49.000    21927894.956    91104903.823        -606.698          41.000  
R09  21707869.177   115918816.057        2702.338          43.000    21707867.364    90159067.512        2102.795          41.000  
R07  23027394.134   123267457.290         722.935          43.000    23027389.434    95874676.638         562.271          38.000  
R21  21979288.752                       -3176.975          32.000    21979268.842    91478724.8183      -2475.193          25.000  
R20  24545018.237                       -4409.609          21.000    24545026.200                       -3438.611          24.000  
E33  24707201.157   129837257.738          37.810          39.000    24707200.496    99485650.204          29.066          38.000  
G25  24398618.397   128215601.328        2595.135          37.000    24398624.213    99908287.397        2022.278          35.000  
S29  37808496.173   198684986.2842       -301.451          29.000  
E29  25170987.037   132274424.268       -1066.251          48.000    25170986.599   101353130.146        -816.863          45.000  
E19  25453125.431   133757065.555         267.039          39.000    25453125.156   102489186.426         204.042          37.000  
C16  37542782.106   195495110.544         166.060          38.000    37542771.244   151169178.377         127.174          33.000  
C27  24781901.607                       -2286.528          28.000                                                                  
C09  38440252.083                         466.515          25.000    38440238.797                         358.804          25.000  
C25  23915072.348   124532065.652       -1243.945          48.000                                                                  
C33  26733410.061                       -1578.336          21.000                                                                  
R22  22622767.287   120761880.022         834.427          45.000    22622763.318    93925893.688         647.631          33.000  
R06  22229007.101   118618272.726        -320.944          36.000                                                                  
G12  24423319.496                        1786.190          26.000    24423324.186                        1389.813          24.000  
G32  24465812.623   128568722.3562        917.633          41.000    24465815.043   100183422.491         714.415          37.000  
J02  38083803.195   200131733.9792       -288.039          41.000    38083808.587   155946829.0501       -224.230          40.000  
G15  23992041.333   126079027.9673      -2337.980          31.000                                                                  
J07  37403919.771   196558923.098        -300.754          33.000    37403917.888   153162790.5921       -235.571          32.000  
J03  36878603.239   193798358.911        -215.588          41.000    36878602.367   151011709.048        -166.619          35.000  
G10  24363182.649   128029385.432        2500.002          43.000    24363182.375    99763157.510        1947.919          41.000  
C10                                                                  40769955.609   164163730.0321       -969.942          33.000  
E26                                                                  25256959.856   101699311.127       -1911.642          28.000  
G24                                                                  21735178.739                       -1957.030          16.000  
J04                                                                  40291301.107   164986141.179         122.783          44.000  
> 2025 10 27 01 32 40.0030000  0 36                     
S37  37403973.368   196559206.4273       -302.380          28.000  
G18  21830128.582   114718099.2493      -1986.072          34.000    21830127.407                       -1548.008          32.000  
G23  21534448.133   113164287.440        1163.898          44.000    21534444.859    88179957.306         907.265          44.000  
C38  37163445.242   193519811.156         336.461          46.000                                                                  
C39  36934349.638                          -0.145          29.000                                                                  
C13  37926974.645   197495709.424         596.839          44.000    37926964.928   152716170.146         461.739          41.000  
C32  25117494.814   130793386.476         990.262          41.000                                                                  
C41  24215384.591                        -416.682          25.000                                                                  
C08  37690725.875   196265538.030         560.824          41.000    37690708.324   151764863.369         433.552          38.000  
R16  21928042.652   117135666.690        -778.468          45.000    21928040.891    91105510.144        -606.205          32.000  
R09  21707363.065   115916113.608        2702.460          43.000    21707361.248    90156965.695        2101.245          38.000  
R07  23027258.982   123266734.034         724.836          41.000    23027254.244    95874114.215         564.273          35.000  
R21  21979891.109                       -3182.115          26.000    21979865.985                       -2471.199          25.000  
R20  24545848.405                       -4404.826          24.000    24545852.635                       -3442.579          23.000  
E33  24707194.024   129837220.291          38.849          36.000    24707193.366                          15.359          28.000  
E26  25257436.622   132728725.0101      -2490.148          35.000    25257433.276   101701219.937       -1909.094          27.000  
G25  24398124.813   128213006.743        2592.689          28.000    24398130.529    99906265.473        2020.489          27.000  
S29  37808553.997   198685291.8933       -300.042          33.000  
E29  25171189.760   132275489.789       -1063.690          46.000    25171189.249   101353946.550        -814.859          44.000  
E19  25453074.938   133756798.397         268.714          34.000    25453074.374   102488981.814         203.807          31.000  
C16  37542750.405   195494945.046         166.353          25.000    37542739.834                         127.803          33.000  
C27  24782334.081   129048116.1943      -2290.613          34.000                                                                  
C09  38440161.732                         467.110          25.000    38440150.619                         359.921          26.000  
C25  23915310.997   124533308.857       -1242.148          47.000                                                                  
R22  22622611.016   120761047.090         834.739          43.000    22622607.492    93925245.869         649.208          38.000  
R06  22229067.056   118618592.796        -318.387          35.000                                                                  
E27  27863048.072                        1245.802          21.000                                                                  
G32  24465649.619                         924.058          37.000    24465641.057   100182706.048         719.723          35.000  
J02  38083858.139   200132022.7182       -289.507          38.000    38083863.590   155947054.216        -226.298          33.000  
J07  37403976.244   196559221.2193       -303.114          28.000    37403975.137   153163024.961        -233.529          32.000  
J03  36878644.204   193798573.937        -215.565          38.000    36878643.247   151011876.511        -166.806          34.000  
G10  24362706.948   128026885.187        2501.423          38.000    24362706.652    99761209.330        1949.252          36.000  
C10                                                                  40770196.039   164164699.663        -970.687          29.000  
G24                                                                  21735657.311                       -1964.476          19.000  
G12                                                                  24422985.716                        1382.897          22.000  
J04                                                                  40291271.010   164986017.884         124.395          41.000  
> 2025 10 27 01 32 41.0030000  0 38                     
G24  21736129.112                       -2510.239          25.000    21736135.699                       -1949.752          17.000  
S37  37404030.546   196559507.0402       -302.362          32.000  
G18  21830506.521   114720086.0583      -1988.531          37.000    21830503.996                       -1543.445          28.000  
G23  21534226.849   113163124.254        1162.714          45.000    21534223.513    88179050.883         906.111          44.000  
C38  37163380.676   193519475.642         335.321          46.000                                                                  
C39  36934350.420   192326854.7433         -1.971          40.000                                                                  
C13  37926860.089   197495113.241         596.104          44.000    37926850.529   152715709.174         461.087          42.000  
C32  25117304.749   130792396.997         989.914          43.000                                                                  
C41  24215465.345                        -411.215          24.000                                                                  
C08  37690618.339   196264977.680         560.024          39.000    37690600.730   151764430.020         433.302          38.000  
R16  21928188.592   117136446.048        -779.960          46.000    21928186.722    91106116.204        -606.698          36.000  
R09  21706857.088   115913411.740        2701.447          38.000    21706855.321    90154864.184        2100.232          37.000  
R07  23027123.720   123266009.996         724.602          40.000    23027119.013    95873550.974         564.613          38.000  
R21  21980485.356   117622016.7863      -3187.793          31.000    21980462.385                       -2468.107          23.000  
R20  24546677.912   131262117.4863      -4406.984          31.000    24546679.751                       -3425.617          21.000  
E33  24707187.052   129837182.873          37.649          41.000    24707186.074    99485599.8091         27.967          33.000  
E26  25257916.261                       -2495.030          27.000    25257906.677   101703129.475       -1909.677          27.000  
G25  24397635.108   128210437.5233       2591.439          33.000    24397637.177    99904244.169        2019.737          28.000  
S29  37808611.935                        -307.910          28.000  
E29  25171392.405   132276554.106       -1064.534          47.000    25171391.820   101354762.084        -815.420          45.000  
E19  25453024.061   133756531.057         266.167          38.000    25453023.155   102488776.746         204.979          27.000  
C16  37542718.821   195494788.3843        164.678          39.000    37542707.534   151168927.8333        126.978          27.000  
C27  24782770.398                       -2288.863          23.000                                                                  
C09  38440086.174                         472.004          24.000    38440085.754                         363.815          27.000  
C25  23915549.614   124534551.540       -1243.137          49.000                                                                  
R22  22622454.643   120760214.362         832.660          43.000    22622451.397    93924585.0923        649.656          39.000  
R06  22229126.711   118618911.382        -318.625          35.000                                                                  
E27  27862812.149                        1247.576          22.000                                                                  
G32  24465467.214   128566897.2003        920.143          42.000    24465466.903   100181996.6961        715.127          34.000  
J02  38083913.131   200132311.8052       -292.055          29.000    38083918.468   155947279.184        -223.503          36.000  
G15  23992927.189                       -2336.959          27.000                                                                  
E21  28456571.876                        1850.949          23.000                                                                  
J07  37404031.584   196559521.6662       -299.340          28.000    37404032.349                        -235.815          27.000  
J03  36878685.121   193798789.204        -215.752          39.000    36878684.377                        -164.815          30.000  
G10  24362231.045   128024383.952        2501.308          44.000    24362230.602    99759260.279        1948.870          37.000  
C10                                                                  40770437.736   164165669.665        -969.125          28.000  
G12                                                                  24422647.905                        1391.953          21.000  
J04                                                                  40291240.693   164985893.758         123.837          42.000  
> 2025 10 27 01 32 42.0030000  0 37                     
G24  21736603.921   114226624.4593      -2512.079          30.000    21736613.466                       -1953.510          17.000  
E07  27776989.461   145969064.6461      -1970.278          34.000                                                                  
S37  37404088.043   196559808.4842       -300.714          34.000  
G18  21830884.388   114722071.6932      -1987.964          35.000    21830889.295    89393841.2551      -1550.299          32.000  
G23  21534005.303   113161960.485        1163.368          49.000    21534002.017    88178144.046         907.166          44.000  
S28  38226860.235                        -304.719          39.000  
C38  37163316.272   193519139.743         335.522          49.000                                                                  
C39  36934351.662   192326860.4023         -2.879          41.000                                                                  
C13  37926745.451   197494516.030         597.300          47.000    37926735.915   152715247.279         462.467          39.000  
C32  25117114.396   130791405.877         992.290          45.000                                                                  
C08  37690510.598   196264416.550         560.953          36.000    37690492.878   151763996.163         434.998          29.000  
R16  21928334.658   117137226.252        -781.896          43.000    21928332.895    91106723.006        -607.009          34.000  
R09  21706351.480   115910711.898        2698.731          42.000    21706349.852    90152764.417        2096.576          34.000  
R07  23026988.117   123265284.179         727.871          45.000    23026983.411    95872986.401         565.298          41.000  
R21  21981079.412                       -3184.131          40.000    21981059.649    91486180.5343      -2474.447          29.000  
R20  24547503.943   131266535.0353      -4409.198          32.000    24547505.626                       -3431.453          22.000  
E33  24707180.006   129837145.458          38.722          43.000    24707179.786    99485571.140          29.217          38.000  
E26  25258408.525                       -2486.728          31.000    25258383.128   101705039.916       -1907.987          28.000  
G25  24397138.006   128207824.5603       2593.833          34.000    24397144.820    99902229.1281       2019.220          32.000  
S29  37808670.268                        -317.725          30.000  
E29  25171594.741   132277617.395       -1063.007          48.000    25171594.166   101355576.746        -813.999          43.000  
E19  25452973.109   133756262.813         270.594          41.000    25452972.230   102488571.395         206.661          36.000  
C16  37542686.851   195494621.7963        165.146          39.000    37542675.738   151168800.3212        129.624          31.000  
C27  24783208.367   129052669.2063      -2288.654          37.000                                                                  
C09  38439992.226   200167126.0583        469.982          29.000    38439991.951                         364.942          26.000  
C25  23915788.386   124535794.673       -1245.046          46.000                                                                  
R22  22622297.942   120759381.065         833.977          46.000    22622295.215    93923936.9542        648.049          37.000  
R06  22229186.138   118619228.706        -319.215          34.000                                                                  
G12  24422321.353                        1793.693          26.000    24422308.618                        1392.316          19.000  
G32  24465287.666   128565954.0082        922.981          49.000    24465294.510   100181290.699         718.131          39.000  
J02  38083972.010                        -285.889          37.000    38083973.925   155947505.790        -225.313          33.000  
G15  23993371.104   126086015.5663      -2333.839          36.000                                                                  
J07  37404089.740                        -302.059          29.000    37404089.354   153163492.6651       -233.952          28.000  
J03  36878726.434   193799006.006        -215.174          36.000    36878727.162   151012222.5811       -160.842          29.000  
G10  24361754.697   128021880.912        2503.966          44.000    24361754.376    99757309.912        1951.058          38.000  
C10                                                                  40770678.985                1       -972.251          15.000  
J04                                                                  40291210.360   164985769.345         124.196          41.000  
> 2025 10 27 01 32 43.0030000  0 36                     
S37  37404145.608   196560111.4473       -299.945          31.000  
G18  21831264.593   114724069.7023      -1989.575          40.000    21831264.665    89395391.281       -1550.391          36.000  
G23  21533783.971   113160797.095        1163.665          46.000    21533780.654    88177237.492         906.872          43.000  
S28  38226924.107                        -300.049          47.000  
C38  37163251.915   193518804.702         335.465          44.000                                                                  
C39  36934351.698   192326862.2822         -1.377          42.000                                                                  
C13  37926630.746   197493918.521         597.659          44.000    37926621.126   152714785.263         462.564          39.000  
C32  25116923.588   130790413.208         993.632          43.000                                                                  
C08  37690402.891   196263856.087         560.426          31.000    37690385.358   151763562.707         434.115          30.000  
R16  21928481.309   117138009.302        -783.295          40.000    21928479.541    91107332.112        -608.791          34.000  
R09  21705850.117                        2695.264          37.000    21705844.917    90150667.2813       2095.660          33.000  
R07  23026852.116   123264556.654         728.212          43.000    23026847.470    95872420.549         566.077          39.000  
R21  21981661.816   117628312.5463      -3183.857          47.000    21981654.554    91488657.2822      -2474.447          39.000  
R20  24548327.660                       -4416.200          26.000    24548329.708                       -3432.369          22.000  
E33  24707172.539   129837107.128          38.778          45.000    24707171.493    99485541.740          29.768          44.000  
E26  25258867.644                       -2489.631          35.000    25258856.918   101706950.304       -1909.744          33.000  
G25  24396643.464   128205226.3593       2591.325          28.000    24396655.165    99900223.594        2019.489          27.000  
S29  37808728.788   198686210.7473       -303.157          39.000  
E29  25171797.123   132278680.455       -1062.443          46.000    25171796.554   101356391.322        -814.331          43.000  
E19  25452921.452   133755992.723         270.575          40.000    25452921.159   102488364.333         207.452          38.000  
C16  37542655.247   195494456.7722        165.945          36.000    37542642.603   151168672.8182        126.815          37.000  
C27  24783646.985   129054957.7882      -2288.727          44.000                                                                  
C09  38439901.897   200166656.3432        469.599          34.000    38439894.767                         357.683          31.000  
C25  23916027.476   124537040.157       -1245.674          44.000                                                                  
R22  22622141.254   120758546.303         834.409          44.000    22622138.758    93923287.7703        649.054          36.000  
R06  22229245.394   118619546.502        -316.896          34.000                                                                  
G12  24421989.626                        1783.190          26.000    24421971.929                        1377.641          21.000  
G32  24465112.435   128565030.9611        923.898          47.000    24465111.351   100180571.836         718.690          38.000  
J02  38084029.431                        -289.429          31.000    38084029.369   155947733.174        -224.502          33.000  
E21  28455867.630                        1854.401          23.000                                                                  
J07  37404145.844   196560112.8113       -302.153          27.000    37404148.836   153163736.1941       -235.330          39.000  
J03  36878769.875   193799242.9753       -216.765          36.000    36878770.341   151012398.8241       -169.240          32.000  
G10  24361278.195   128019376.592        2504.812          42.000    24361277.816    99755358.422        1952.394          38.000  
C10                                                                  40770920.580                        -968.823          30.000  
G24                                                                  21737092.973                       -1958.779          18.000  
J04                                                                  40291180.137   164985645.672         124.124          40.000  
